[{"name":"Met Ajans","address":"Gaziantep Cad. Çınlar Sok., Ayakkabıcılar İş Hanı Kat: 2 No: 10/205, 81000","website":"duzcemetajans.com","tel":"0553 265 40 50","mapsUrl":"https://www.google.com.tr/maps/place/Met+Ajans/@40.843849,31.15654,14z/data=!4m8!1m2!2m1!1sajans!3m4!1s0x409d755abf10b7e1:0x3f4d36adeb5569d5!8m2!3d40.839723!4d31.1613889","openHours":" ","category":"Reklam Ajansı","rating":"5,0"},{"name":"ARN Ajans","address":"Şerefiye, Uzunzade Sk. No:16, 81100 Düzce Merkez/Düzce","website":" ","tel":"0506 726 28 78","mapsUrl":"https://www.google.com.tr/maps/place/ARN+Ajans/@40.8438464,31.15654,14z/data=!4m8!1m2!2m1!1sajans!3m4!1s0x409d755aa60741cb:0x42d89b9ea461bb4a!8m2!3d40.8400802!4d31.1625056","openHours":" ","category":"Reklam Ajansı","rating":" "},{"name":"Gul Ajans Reklam Ltd.","address":"Şerefiye Serefiye M, Cengiz Topel Sk. No:4, 81030 Düzce Merkez/Düzce","website":"kelebekscript.com.tr","tel":"(0380) 514 28 99","mapsUrl":"https://www.google.com.tr/maps/place/Gul+Ajans+Reklam+Ltd./@40.8438464,31.15654,14z/data=!4m8!1m2!2m1!1sajans!3m4!1s0x409d755a93a01a41:0xa7c3803e14c036b6!8m2!3d40.839964!4d31.1607299","openHours":" ","category":"Reklam Ajansı","rating":" "},{"name":"Sinemarka Dijital Medya Ajansı","address":"Camikebir Mahallesi Rıhtım Caddesi No: 2 Pak Ekizceli İş Merkezi İç Kapı No:, D:126, 81020 Merkez/Düzce","website":"sinemarka.com","tel":"0535 252 67 17","mapsUrl":"https://www.google.com.tr/maps/place/Sinemarka+Dijital+Medya+Ajans%C4%B1/@40.8438464,31.15654,14z/data=!4m8!1m2!2m1!1sajans!3m4!1s0x409d75872de7dfe3:0x159b14432c67ca48!8m2!3d40.8375628!4d31.1584685","openHours":"Pazartesi,08:00 - 20:00; Salı,08:00 - 20:00; Çarşamba,08:00 - 20:00; Perşembe,08:00 - 20:00; Cuma,08:00 - 20:00; Cumartesi,09:00 - 19:00; Pazar,Kapalı.","category":"Reklam Ajansı","rating":"5,0"},{"name":"İstikbal Reklam Ajansı","address":"Şerefiye, Necatibey Sk. No:1, 81100 Düzce Merkez/Düzce","website":"istikbalreklam.com","tel":"(0380) 512 07 89","mapsUrl":"https://www.google.com.tr/maps/place/%C4%B0stikbal+Reklam+Ajans%C4%B1/@40.8438464,31.15654,14z/data=!4m8!1m2!2m1!1sajans!3m4!1s0x409d75505c4a265f:0x1559a54c8092f60c!8m2!3d40.841826!4d31.162299","openHours":" ","category":"Reklam Ajansı","rating":"4,0"},{"name":"Vega Medya Dijital Reklam Ajansı","address":"Camikebir, Eski Bağdat Cd. No:8, 81020, 81020 Düzce Merkez/Düzce","website":" ","tel":" ","mapsUrl":"https://www.google.com.tr/maps/place/Vega+Medya+Dijital+Reklam+Ajans%C4%B1/@40.8438464,31.15654,14z/data=!4m8!1m2!2m1!1sajans!3m4!1s0x409d753f37288cc3:0x7d158e43e8a776fb!8m2!3d40.8400387!4d31.1490743","openHours":" ","category":"Reklam Ajansı","rating":" "},{"name":"bw. digital agency","address":"Şerefiye Mahallesi Rasim Betir Paşa Bulvarı 334 Sk. NO:16 Cengizler İş Merkezi Kat:3 Daire: 34, 81010 Düzce","website":"bw.net.tr","tel":"(0380) 514 33 29","mapsUrl":"https://www.google.com.tr/maps/place/bw.+digital+agency/@40.8438464,31.15654,14z/data=!4m8!1m2!2m1!1sajans!3m4!1s0x409d9fe1148c064f:0x8728fd0817fa382!8m2!3d40.8443238!4d31.1628873","openHours":"Pazartesi,09:00 - 18:00; Salı,09:00 - 18:00; Çarşamba,09:00 - 18:00; Perşembe,09:00 - 18:00; Cuma,09:00 - 18:00; Cumartesi,09:00 - 13:00; Pazar,Kapalı.","category":"Web Sitesi Tasarımcısı","rating":"5,0"},{"name":"Ajans112 Reklam, Tasarım, Organizasyon ve Aracılık Hizmetleri","address":"Yıldız Mahallesi, Çamlı Sokağı No:13, 34755 Kâğıthane/İstanbul","website":"ajans112.com","tel":"0532 471 57 86","mapsUrl":"https://www.google.com.tr/maps/place/Ajans112+Reklam,+Tasar%C4%B1m,+Organizasyon+ve+Arac%C4%B1l%C4%B1k+Hizmetleri/@40.8438464,31.15654,14z/data=!4m8!1m2!2m1!1sajans!3m4!1s0x409d752eadd100e9:0x25c5ef40517fe15!8m2!3d40.8450131!4d31.1595781","openHours":" ","category":"Reklam Ajansı","rating":" "},{"name":"İstikbal Reklam Ajansı","address":"Cedidiye, Celal Kasapoğlu Cd. No:17/B, 81100 Merkez/Düzce","website":"istikbalreklam.com","tel":"(0380) 512 07 89","mapsUrl":"https://www.google.com.tr/maps/place/%C4%B0stikbal+Reklam+Ajans%C4%B1/@40.8438464,31.15654,14z/data=!4m8!1m2!2m1!1sajans!3m4!1s0x409d75445a288079:0x936651debfe9e60f!8m2!3d40.8372167!4d31.1643119","openHours":"Pazartesi,08:00 - 23:59; Salı,08:00 - 23:59; Çarşamba,08:00 - 23:59; Perşembe,08:00 - 23:59; Cuma,08:00 - 23:59; Cumartesi,08:00 - 23:59; Pazar,08:00 - 23:59.","category":"Reklam Ajansı","rating":" "},{"name":"Olcay Reklam Grafik Tasarım Matbaa Hizmetleri","address":"Camikebir Mahallesi Rıhtım Caddesi Pak Ekizceli İş Merkezi No: 2 Kat 1, D:128, 81100 Merkez/Düzce","website":"olcayreklam.com","tel":"0532 710 94 00","mapsUrl":"https://www.google.com.tr/maps/place/Olcay+Reklam+Grafik+Tasar%C4%B1m+Matbaa+Hizmetleri/@40.8438464,31.15654,14z/data=!4m8!1m2!2m1!1sajans!3m4!1s0x409d9fe3efe77907:0x8a1ee3fa5ac3d8c!8m2!3d40.8375941!4d31.158474","openHours":"Pazartesi,09:00 - 18:00; Salı,09:00 - 18:00; Çarşamba,09:00 - 18:00; Perşembe,09:00 - 18:00; Cuma,09:00 - 18:00; Cumartesi,09:00 - 13:00; Pazar,Kapalı.","category":"Reklam Ajansı","rating":"5,0"},{"name":"Sevgi Reklam","address":"Şerefiye mahallesi çınlar sokak ayakkabıcılar sitesi no:10/207, 0542 238 20 45, 81000 Düzce Merkez/Düzce","website":"sevgireklam.com","tel":"0542 238 20 45","mapsUrl":"https://www.google.com.tr/maps/place/Sevgi+Reklam/@40.8438464,31.15654,14z/data=!4m8!1m2!2m1!1sajans!3m4!1s0x409d755abf99ee25:0x87ba6e9371b3c46e!8m2!3d40.8397595!4d31.1614366","openHours":"Pazartesi,08:30 - 07:30; Salı,08:30 - 07:30; Çarşamba,08:30 - 07:30; Perşembe,08:30 - 07:30; Cuma,08:30 - 07:30; Cumartesi,08:30 - 07:30; Pazar,Kapalı.","category":"Reklam Ajansı","rating":" "},{"name":"Artı Reklam Tabela Matbaa Promosyon","address":"Şerifiye mah, Cengiz Topel Sk. 15/B, 81000 Merkez/Düzce","website":"artireklamduzce.business.site","tel":"0555 595 86 13","mapsUrl":"https://www.google.com.tr/maps/place/Art%C4%B1+Reklam+Tabela+Matbaa+Promosyon/@40.8438464,31.15654,14z/data=!4m8!1m2!2m1!1sajans!3m4!1s0x409d752d008b164d:0xdc5f32333b9ecdc3!8m2!3d40.8407385!4d31.1609315","openHours":"Pazartesi,09:00 - 19:00; Salı,09:00 - 19:00; Çarşamba,09:00 - 19:00; Perşembe,09:00 - 19:00; Cuma,09:00 - 19:00; Cumartesi,09:30 - 18:00; Pazar,Kapalı.","category":"Reklam Ajansı","rating":"5,0"},{"name":"Gül Ajans","address":"Şerefiye, Cengiz Topel Sk. No:4, 81010 Düzce Merkez/Düzce","website":"gulajans.com.tr","tel":"(0380) 514 28 99","mapsUrl":"https://www.google.com.tr/maps/place/G%C3%BCl+Ajans/@40.8438464,31.15654,14z/data=!4m8!1m2!2m1!1sajans!3m4!1s0x409d755376960833:0x69d940bce790c0a4!8m2!3d40.839964!4d31.1607299","openHours":" ","category":" ","rating":" "},{"name":"Düzce Web Tasarım - Alse Medya Reklam","address":"Şerefiye, Atatürk Blv., 81100 Düzce Merkez/Düzce","website":" ","tel":"0532 133 63 00","mapsUrl":"https://www.google.com.tr/maps/place/D%C3%BCzce+Web+Tasar%C4%B1m+-+Alse+Medya+Reklam/@40.8438464,31.15654,14z/data=!4m8!1m2!2m1!1sajans!3m4!1s0x409d0ba590d5be11:0x90a6421ada060aae!8m2!3d40.8452524!4d31.1648827","openHours":"Pazartesi,24 saat açık; Salı,24 saat açık; Çarşamba,24 saat açık; Perşembe,24 saat açık; Cuma,24 saat açık; Cumartesi,24 saat açık; Pazar,24 saat açık.","category":"Reklam Ajansı","rating":"5,0"},{"name":"Ajans112 Reklam, Tasarım ve Organizasyon","address":"Eski Sanayi Çarşısı No: 387, D:F, 81600 Merkez/Düzce","website":"ajans112.com","tel":"0532 440 81 81","mapsUrl":"https://www.google.com.tr/maps/place/Ajans112+Reklam,+Tasar%C4%B1m+ve+Organizasyon/@40.8438464,31.15654,14z/data=!4m8!1m2!2m1!1sajans!3m4!1s0x409d75cf7d3051c5:0x82228ebc6e5cad97!8m2!3d40.847415!4d31.1548115","openHours":"Pazartesi,09:00 - 18:30; Salı,09:00 - 18:30; Çarşamba,09:00 - 18:30; Perşembe,09:00 - 18:30; Cuma,09:00 - 18:30; Cumartesi,09:00 - 18:30; Pazar,Kapalı.","category":"Reklam Ajansı","rating":" "},{"name":"Tutkun Ajans Promosyon","address":"Cedidiye, Bolu Cd. No:66, 81020 Düzce Merkez/Düzce","website":" ","tel":" ","mapsUrl":"https://www.google.com.tr/maps/place/Tutkun+Ajans+Promosyon/@40.8438464,31.15654,14z/data=!4m8!1m2!2m1!1sajans!3m4!1s0x409d75466060ec53:0x1f42313a53f7211b!8m2!3d40.8364045!4d31.1686969","openHours":" ","category":" ","rating":" "},{"name":"M&B Ajans","address":"Camikebir, 657. Sk. No:16, 81020 Düzce Merkez/Düzce","website":" ","tel":" ","mapsUrl":"https://www.google.com.tr/maps/place/M%26B+Ajans/@40.8438464,31.15654,14z/data=!4m8!1m2!2m1!1sajans!3m4!1s0x409d755ba218a5fb:0xfae61dae6e5e8659!8m2!3d40.838619!4d31.157209","openHours":" ","category":" ","rating":"5,0"},{"name":"REKLAM KURDU","address":"Kültür, mehmet akif caddesi mazhar osman sokak no:4/A, 81100 merkez/Düzce","website":"reklamkurdu.com","tel":"0552 785 01 81","mapsUrl":"https://www.google.com.tr/maps/place/REKLAM+KURDU/@40.8438464,31.15654,14z/data=!4m8!1m2!2m1!1sajans!3m4!1s0x409d9ff9dbdd9afb:0x488f3b332898b8f3!8m2!3d40.8444699!4d31.1566962","openHours":"Pazartesi,09:00 - 18:00; Salı,09:00 - 18:00; Çarşamba,09:00 - 18:00; Perşembe,09:00 - 18:00; Cuma,09:00 - 18:00; Cumartesi,09:00 - 18:00; Pazar,Kapalı.","category":"Reklam Ajansı","rating":"5,0"},{"name":"Cihan Reklam Ajansı","address":"Merkez Mahallesi, Uzunmustafa Mah. D-100 Karayolu Üzeri, Dsi Karşısı No:457, 81000 Merkez/Düzce","website":"cihanreklamajansi.com","tel":"(0380) 524 64 55","mapsUrl":"https://www.google.com.tr/maps/place/Cihan+Reklam+Ajans%C4%B1/@40.8438464,31.15654,14z/data=!4m8!1m2!2m1!1sajans!3m4!1s0x409d9f712140f7df:0xf18cbe58bd602a5!8m2!3d40.8479718!4d31.1469937","openHours":" ","category":"Reklam Ajansı","rating":" "},{"name":"Serbay Interactive","address":"Merkez, Şerefiye Mh. Rasim Betir Paşa Bulvarı No:3 Kat:3/24, 81010 Düzce Merkez/Düzce","website":"serbay.net","tel":"(0380) 523 27 73","mapsUrl":"https://www.google.com.tr/maps/place/Serbay+Interactive/@40.8438464,31.15654,14z/data=!4m8!1m2!2m1!1sajans!3m4!1s0x409d7559da996a0d:0x9b60e32a869137f7!8m2!3d40.8441237!4d31.1637553","openHours":"Pazartesi,09:00 - 18:00; Salı,09:00 - 18:00; Çarşamba,09:00 - 18:00; Perşembe,09:00 - 18:00; Cuma,09:00 - 18:00; Cumartesi,09:00 - 18:00; Pazar,Kapalı.","category":"Reklam Ajansı","rating":"4,5"},{"name":"Işık Kırtasiye","address":"Burhaniye, Atatürk Blv., 81010 Düzce Merkez/Düzce","website":" ","tel":" ","mapsUrl":"https://www.google.com.tr/maps/place/I%C5%9F%C4%B1k+K%C4%B1rtasiye/@40.843849,31.15654,14z/data=!4m8!1m2!2m1!1za2l0YXDDp8Sx!3m4!1s0x409d754536dbcc4f:0x2ef5b3d917a1627e!8m2!3d40.8389876!4d31.1628455","openHours":"Pazartesi,08:00 - 20:00; Salı,08:00 - 20:00; Çarşamba,08:00 - 20:00; Perşembe,08:00 - 20:00; Cuma,08:00 - 20:00; Cumartesi,08:00 - 20:00; Pazar,08:00 - 20:00.","category":"Kitapçı","rating":"5,0"},{"name":"Nil Kitap Kırtasiye","address":"Cedidiye, Bolu Cad. Türkoğlu Sitesi 10/D, 81020 Düzce Merkez/Düzce","website":" ","tel":"(0380) 524 22 03","mapsUrl":"https://www.google.com.tr/maps/place/Nil+Kitap+K%C4%B1rtasiye/@40.8438464,31.15654,14z/data=!4m8!1m2!2m1!1za2l0YXDDp8Sx!3m4!1s0x409d755367304a69:0x219f33f7ed3cce8a!8m2!3d40.8384252!4d31.1635899","openHours":" ","category":"Kitapçı","rating":" "},{"name":"Düzce İşler Kitabevleri","address":"Kültür Mahallesi İstanbul Caddesi No:90 Z:12/13 Eğilmez Pasajı, 81010 Merkez/Düzce","website":"business.site","tel":"0544 763 39 49","mapsUrl":"https://www.google.com.tr/maps/place/D%C3%BCzce+%C4%B0%C5%9Fler+Kitabevleri/@40.8438464,31.15654,14z/data=!4m8!1m2!2m1!1za2l0YXDDp8Sx!3m4!1s0x409d75f887d84323:0x86cc0730a5a7e083!8m2!3d40.8394233!4d31.1591031","openHours":"Pazartesi,08:30 - 20:00; Salı,08:30 - 20:00; Çarşamba,08:30 - 20:00; Perşembe,08:30 - 20:00; Cuma,08:30 - 20:00; Cumartesi,08:30 - 20:00; Pazar,10:00 - 19:00.","category":"Kitap Yayıncısı","rating":"4,5"},{"name":"Sümer Kırtasiye","address":"Burhaniye, Köprü Sk., 81010 Düzce Merkez/Düzce","website":"sumerkirtasiye.com","tel":" ","mapsUrl":"https://www.google.com.tr/maps/place/S%C3%BCmer+K%C4%B1rtasiye/@40.8438464,31.15654,14z/data=!4m8!1m2!2m1!1za2l0YXDDp8Sx!3m4!1s0x409d75453d60e1d3:0x716b9359bbfdd4cd!8m2!3d40.8386197!4d31.1633633","openHours":"Pazartesi,08:00 - 20:00; Salı,08:00 - 20:00; Çarşamba,08:00 - 20:00; Perşembe,08:00 - 20:00; Cuma,08:00 - 20:00; Cumartesi,09:00 - 20:00; Pazar,10:00 - 19:00.","category":"Kitapçı","rating":"4,8"},{"name":"Fatih Kırtasiye","address":"Şerefiye, İstanbul Cd., 81010 Düzce Merkez/Düzce","website":" ","tel":" ","mapsUrl":"https://www.google.com.tr/maps/place/Fatih+K%C4%B1rtasiye/@40.8438464,31.15654,14z/data=!4m8!1m2!2m1!1za2l0YXDDp8Sx!3m4!1s0x409d755ad243cbff:0x4d1bf1a14801991f!8m2!3d40.838876!4d31.161655","openHours":"Pazartesi,08:00 - 20:30; Salı,08:00 - 20:30; Çarşamba,08:00 - 20:30; Perşembe,08:00 - 20:30; Cuma,08:00 - 20:30; Cumartesi,08:00 - 20:30; Pazar,08:30 - 20:30.","category":"Kitapçı","rating":"4,3"},{"name":"Yonca Kitap Kırtasiye","address":"Şerefiye, Süleyman Kuyumcu Cad. No:17, 81010 Düzce Merkez/Düzce","website":" ","tel":"(0380) 524 50 30","mapsUrl":"https://www.google.com.tr/maps/place/Yonca+Kitap+K%C4%B1rtasiye/@40.8438464,31.15654,14z/data=!4m8!1m2!2m1!1za2l0YXDDp8Sx!3m4!1s0x409d7554a5865d7d:0x214e99cf3b7d1e7f!8m2!3d40.8405924!4d31.159664","openHours":" ","category":"Kitapçı","rating":"5,0"},{"name":"TveK Düzce","address":"Şerefiye, Atatürk Blv. 25/D, 81000 Merkez/Düzce Merkez/Düzce","website":"tvek.com.tr","tel":"(0380) 524 77 22","mapsUrl":"https://www.google.com.tr/maps/place/TveK+D%C3%BCzce/@40.8438464,31.15654,14z/data=!4m8!1m2!2m1!1za2l0YXDDp8Sx!3m4!1s0x409d7554b32978c1:0xf72ceba13049fe0e!8m2!3d40.8406185!4d31.1629327","openHours":"Pazartesi,08:30 - 20:00; Salı,08:30 - 20:00; Çarşamba,08:30 - 20:00; Perşembe,08:30 - 20:00; Cuma,08:30 - 20:00; Cumartesi,08:30 - 20:00; Pazar,10:00 - 20:00.","category":"Kırtasiye Mağazası","rating":"4,0"},{"name":"Yerli Kırtasiye","address":"Burhaniye, Atatürk Blv., 81010 Düzce Merkez/Düzce","website":" ","tel":" ","mapsUrl":"https://www.google.com.tr/maps/place/Yerli+K%C4%B1rtasiye/@40.8438464,31.15654,14z/data=!4m8!1m2!2m1!1za2l0YXDDp8Sx!3m4!1s0x409d7553d1adc87f:0xf1318bffbe5beab3!8m2!3d40.844898!4d31.164696","openHours":"Pazartesi,08:00 - 20:30; Salı,08:00 - 20:30; Çarşamba,08:00 - 20:30; Perşembe,08:00 - 20:30; Cuma,08:00 - 20:30; Cumartesi,08:00 - 20:30; Pazar,08:30 - 20:30.","category":"Kitapçı","rating":" "},{"name":"Akdoğan Kitap Kırtasiye","address":"Merkez, Eski İstanbul Cad. No:87, 81020 Düzce Merkez/Düzce","website":" ","tel":"(0380) 523 61 37","mapsUrl":"https://www.google.com.tr/maps/place/Akdo%C4%9Fan+Kitap+K%C4%B1rtasiye/@40.8438464,31.15654,14z/data=!4m8!1m2!2m1!1za2l0YXDDp8Sx!3m4!1s0x409d756cda403a2b:0xd8c3899add1abc71!8m2!3d40.8402413!4d31.1514382","openHours":"Pazartesi,08:00 - 20:30; Salı,08:00 - 20:30; Çarşamba,08:00 - 20:30; Perşembe,08:00 - 20:30; Cuma,08:00 - 20:30; Cumartesi,08:00 - 20:30; Pazar,08:00 - 20:30.","category":"Kitapçı","rating":"4,2"},{"name":"Tusdata","address":"Kiremitocağı, İstanbul Cad. No:134, 81020 Düzce Merkez/Düzce","website":"tus.com","tel":"(0380) 512 25 14","mapsUrl":"https://www.google.com.tr/maps/place/Tusdata/@40.8438464,31.15654,14z/data=!4m8!1m2!2m1!1za2l0YXDDp8Sx!3m4!1s0x409d7558b015bafb:0x7424cabc93877886!8m2!3d40.8403268!4d31.1490985","openHours":" ","category":"Kitapçı","rating":"4,4"},{"name":"D&R","address":"Kültür Mah. İstanbul Cad. No:116/1B8, 81600","website":"dr.com.tr","tel":"(0380) 502 09 07","mapsUrl":"https://www.google.com.tr/maps/place/D%26R/@40.8438464,31.15654,14z/data=!4m8!1m2!2m1!1za2l0YXDDp8Sx!3m4!1s0x409d755902555555:0xfdab67948df154f4!8m2!3d40.8406536!4d31.1525936","openHours":" ","category":"Kitapçı","rating":"3,2"},{"name":"İlim Kırtasiye","address":"Nusrettin, 220. Sk., 81010 Düzce Merkez/Düzce","website":" ","tel":" ","mapsUrl":"https://www.google.com.tr/maps/place/%C4%B0lim+K%C4%B1rtasiye/@40.8438464,31.15654,14z/data=!4m8!1m2!2m1!1za2l0YXDDp8Sx!3m4!1s0x409d75465b791fdf:0xa02ed55aa630f0ce!8m2!3d40.8365246!4d31.1694508","openHours":" ","category":"Kitapçı","rating":"4,6"},{"name":"Taha Kırtasiye","address":"Şerefiye, Necatibey Sk., 81010 Düzce Merkez/Düzce","website":" ","tel":" ","mapsUrl":"https://www.google.com.tr/maps/place/Taha+K%C4%B1rtasiye/@40.8438464,31.15654,14z/data=!4m8!1m2!2m1!1za2l0YXDDp8Sx!3m4!1s0x409d7550606dd717:0x8e16f21d88f14514!8m2!3d40.841786!4d31.161759","openHours":" ","category":"Kitapçı","rating":" "},{"name":"Melis Kırtasiye","address":"Kültür, 754. Sk., 81600 Düzce Merkez/Düzce","website":" ","tel":" ","mapsUrl":"https://www.google.com.tr/maps/place/Melis+K%C4%B1rtasiye/@40.8438464,31.15654,14z/data=!4m8!1m2!2m1!1za2l0YXDDp8Sx!3m4!1s0x409d755a7190c31d:0x6b18a5f0d28130db!8m2!3d40.840956!4d31.159201","openHours":"Pazartesi,08:00 - 20:00; Salı,08:00 - 20:00; Çarşamba,08:00 - 20:00; Perşembe,08:00 - 20:00; Cuma,08:00 - 20:00; Cumartesi,08:00 - 20:00; Pazar,10:00 - 19:00.","category":"Kitapçı","rating":"4,7"},{"name":"Hakikat Kırtasiye","address":"Burhaniye, Şht. Ruhsar Cd, 81010 Düzce Merkez/Düzce","website":" ","tel":" ","mapsUrl":"https://www.google.com.tr/maps/place/Hakikat+K%C4%B1rtasiye/@40.8438464,31.15654,14z/data=!4m8!1m2!2m1!1za2l0YXDDp8Sx!3m4!1s0x409d754ff18321ed:0x534d2fc8a25d7114!8m2!3d40.840153!4d31.164971","openHours":"Pazartesi,08:00 - 19:00; Salı,08:00 - 19:00; Çarşamba,08:00 - 19:00; Perşembe,08:00 - 19:00; Cuma,08:00 - 19:00; Cumartesi,08:00 - 19:30; Pazar,10:00 - 19:00.","category":"Kitapçı","rating":"4,8"},{"name":"Akteknik Kırtasiye","address":"Nusrettin, Bolu Cd., 81010 Düzce Merkez/Düzce","website":" ","tel":" ","mapsUrl":"https://www.google.com.tr/maps/place/Akteknik+K%C4%B1rtasiye/@40.8438464,31.15654,14z/data=!4m8!1m2!2m1!1za2l0YXDDp8Sx!3m4!1s0x409d7545cee21081:0x168ead0c0dae6877!8m2!3d40.8373329!4d31.1666503","openHours":" ","category":"Kitapçı","rating":"5,0"},{"name":"Beyaz Kalem Kitabevi","address":"Uzun Mustafa, Kuyumcuzade Blv. No:70/1, 81010 Merkez/Düzce","website":" ","tel":"(0380) 512 00 58","mapsUrl":"https://www.google.com.tr/maps/place/Beyaz+Kalem+Kitabevi/@40.8438464,31.15654,14z/data=!4m8!1m2!2m1!1za2l0YXDDp8Sx!3m4!1s0x409d752092aad603:0xbcf372f2211a3e41!8m2!3d40.8427261!4d31.151039","openHours":" ","category":"Kitapçı","rating":" "},{"name":"Okur Kırtasiye","address":"Uzun Mustafa, Kuyumcuzade Blv., 81010 Düzce Merkez/Düzce","website":"tikla.com.tr","tel":" ","mapsUrl":"https://www.google.com.tr/maps/place/Okur+K%C4%B1rtasiye/@40.8438464,31.15654,14z/data=!4m8!1m2!2m1!1za2l0YXDDp8Sx!3m4!1s0x409d755874cec787:0x3f24915d47b3f543!8m2!3d40.8426419!4d31.1510684","openHours":"Pazartesi,08:00 - 20:30; Salı,08:00 - 20:30; Çarşamba,08:00 - 20:30; Perşembe,08:00 - 20:30; Cuma,08:00 - 20:30; Cumartesi,08:00 - 20:30; Pazar,10:00 - 20:30.","category":"Kitapçı","rating":"4,5"},{"name":"Genç Kırtasiye","address":"Uzun Mustafa, Uzunmustafa Cd., 81010 Düzce Merkez/Düzce","website":" ","tel":" ","mapsUrl":"https://www.google.com.tr/maps/place/Gen%C3%A7+K%C4%B1rtasiye/@40.8438464,31.15654,14z/data=!4m8!1m2!2m1!1za2l0YXDDp8Sx!3m4!1s0x409d75587b1b72b5:0x4bc91b44a122bcd8!8m2!3d40.842013!4d31.150883","openHours":"Pazartesi,08:00 - 20:00; Salı,08:00 - 20:00; Çarşamba,08:00 - 20:00; Perşembe,08:00 - 20:00; Cuma,08:00 - 20:00; Cumartesi,08:00 - 20:00; Pazar,09:00 - 20:00.","category":"Kitapçı","rating":"4,2"},{"name":"Ömür Hac Malzemeleri","address":"Karakol sokağı büyük camii karşısı no:3, Düzce Merkez/Düzce","website":" ","tel":" ","mapsUrl":"https://www.google.com.tr/maps/place/%C3%96m%C3%BCr+Hac+Malzemeleri/@40.8438464,31.15654,14z/data=!4m8!1m2!2m1!1za2l0YXDDp8Sx!3m4!1s0x409d75ed6070566d:0x5b4fbdac59906a8a!8m2!3d40.83872!4d31.162609","openHours":" ","category":"Dinî Kitap Mağazası","rating":" "},{"name":"Met Ajans","address":"Gaziantep Cad. Çınlar Sok., Ayakkabıcılar İş Hanı Kat: 2 No: 10/205, 81000","website":"duzcemetajans.com","tel":"0553 265 40 50","mapsUrl":"https://www.google.com.tr/maps/place/Met+Ajans/@40.843849,31.15654,14z/data=!4m8!1m2!2m1!1sajans!3m4!1s0x409d755abf10b7e1:0x3f4d36adeb5569d5!8m2!3d40.839723!4d31.1613889","openHours":" ","category":"Reklam Ajansı","rating":"5,0"},{"name":"ARN Ajans","address":"Şerefiye, Uzunzade Sk. No:16, 81100 Düzce Merkez/Düzce","website":" ","tel":"0506 726 28 78","mapsUrl":"https://www.google.com.tr/maps/place/ARN+Ajans/@40.8438464,31.15654,14z/data=!4m8!1m2!2m1!1sajans!3m4!1s0x409d755aa60741cb:0x42d89b9ea461bb4a!8m2!3d40.8400802!4d31.1625056","openHours":" ","category":"Reklam Ajansı","rating":" "},{"name":"Gul Ajans Reklam Ltd.","address":"Şerefiye Serefiye M, Cengiz Topel Sk. No:4, 81030 Düzce Merkez/Düzce","website":"kelebekscript.com.tr","tel":"(0380) 514 28 99","mapsUrl":"https://www.google.com.tr/maps/place/Gul+Ajans+Reklam+Ltd./@40.8438464,31.15654,14z/data=!4m8!1m2!2m1!1sajans!3m4!1s0x409d755a93a01a41:0xa7c3803e14c036b6!8m2!3d40.839964!4d31.1607299","openHours":" ","category":"Reklam Ajansı","rating":" "},{"name":"Sinemarka Dijital Medya Ajansı","address":"Camikebir Mahallesi Rıhtım Caddesi No: 2 Pak Ekizceli İş Merkezi İç Kapı No:, D:126, 81020 Merkez/Düzce","website":"sinemarka.com","tel":"0535 252 67 17","mapsUrl":"https://www.google.com.tr/maps/place/Sinemarka+Dijital+Medya+Ajans%C4%B1/@40.8438464,31.15654,14z/data=!4m8!1m2!2m1!1sajans!3m4!1s0x409d75872de7dfe3:0x159b14432c67ca48!8m2!3d40.8375628!4d31.1584685","openHours":"Pazartesi,08:00 - 20:00; Salı,08:00 - 20:00; Çarşamba,08:00 - 20:00; Perşembe,08:00 - 20:00; Cuma,08:00 - 20:00; Cumartesi,09:00 - 19:00; Pazar,Kapalı.","category":"Reklam Ajansı","rating":"5,0"},{"name":"İstikbal Reklam Ajansı","address":"Şerefiye, Necatibey Sk. No:1, 81100 Düzce Merkez/Düzce","website":"istikbalreklam.com","tel":"(0380) 512 07 89","mapsUrl":"https://www.google.com.tr/maps/place/%C4%B0stikbal+Reklam+Ajans%C4%B1/@40.8438464,31.15654,14z/data=!4m8!1m2!2m1!1sajans!3m4!1s0x409d75505c4a265f:0x1559a54c8092f60c!8m2!3d40.841826!4d31.162299","openHours":" ","category":"Reklam Ajansı","rating":"4,0"},{"name":"Vega Medya Dijital Reklam Ajansı","address":"Camikebir, Eski Bağdat Cd. No:8, 81020, 81020 Düzce Merkez/Düzce","website":" ","tel":" ","mapsUrl":"https://www.google.com.tr/maps/place/Vega+Medya+Dijital+Reklam+Ajans%C4%B1/@40.8438464,31.15654,14z/data=!4m8!1m2!2m1!1sajans!3m4!1s0x409d753f37288cc3:0x7d158e43e8a776fb!8m2!3d40.8400387!4d31.1490743","openHours":" ","category":"Reklam Ajansı","rating":" "},{"name":"bw. digital agency","address":"Şerefiye Mahallesi Rasim Betir Paşa Bulvarı 334 Sk. NO:16 Cengizler İş Merkezi Kat:3 Daire: 34, 81010 Düzce","website":"bw.net.tr","tel":"(0380) 514 33 29","mapsUrl":"https://www.google.com.tr/maps/place/bw.+digital+agency/@40.8400387,31.1315648,14z/data=!4m8!1m2!2m1!1sajans!3m4!1s0x409d9fe1148c064f:0x8728fd0817fa382!8m2!3d40.8443238!4d31.1628873","openHours":"Pazartesi,09:00 - 18:00; Salı,09:00 - 18:00; Çarşamba,09:00 - 18:00; Perşembe,09:00 - 18:00; Cuma,09:00 - 18:00; Cumartesi,09:00 - 13:00; Pazar,Kapalı.","category":"Web Sitesi Tasarımcısı","rating":"5,0"},{"name":"Ajans112 Reklam, Tasarım, Organizasyon ve Aracılık Hizmetleri","address":"Yıldız Mahallesi, Çamlı Sokağı No:13, 34755 Kâğıthane/İstanbul","website":"ajans112.com","tel":"0532 471 57 86","mapsUrl":"https://www.google.com.tr/maps/place/Ajans112+Reklam,+Tasar%C4%B1m,+Organizasyon+ve+Arac%C4%B1l%C4%B1k+Hizmetleri/@40.8400387,31.1315648,14z/data=!4m8!1m2!2m1!1sajans!3m4!1s0x409d752eadd100e9:0x25c5ef40517fe15!8m2!3d40.8450131!4d31.1595781","openHours":" ","category":"Reklam Ajansı","rating":" "},{"name":"İstikbal Reklam Ajansı","address":"Cedidiye, Celal Kasapoğlu Cd. No:17/B, 81100 Merkez/Düzce","website":"istikbalreklam.com","tel":"(0380) 512 07 89","mapsUrl":"https://www.google.com.tr/maps/place/%C4%B0stikbal+Reklam+Ajans%C4%B1/@40.8400387,31.1315648,14z/data=!4m8!1m2!2m1!1sajans!3m4!1s0x409d75445a288079:0x936651debfe9e60f!8m2!3d40.8372167!4d31.1643119","openHours":"Pazartesi,08:00 - 23:59; Salı,08:00 - 23:59; Çarşamba,08:00 - 23:59; Perşembe,08:00 - 23:59; Cuma,08:00 - 23:59; Cumartesi,08:00 - 23:59; Pazar,08:00 - 23:59.","category":"Reklam Ajansı","rating":" "},{"name":"Olcay Reklam Grafik Tasarım Matbaa Hizmetleri","address":"Camikebir Mahallesi Rıhtım Caddesi Pak Ekizceli İş Merkezi No: 2 Kat 1, D:128, 81100 Merkez/Düzce","website":"olcayreklam.com","tel":"0532 710 94 00","mapsUrl":"https://www.google.com.tr/maps/place/Olcay+Reklam+Grafik+Tasar%C4%B1m+Matbaa+Hizmetleri/@40.8438464,31.15654,14z/data=!4m8!1m2!2m1!1sajans!3m4!1s0x409d9fe3efe77907:0x8a1ee3fa5ac3d8c!8m2!3d40.8375941!4d31.158474","openHours":"Pazartesi,09:00 - 18:00; Salı,09:00 - 18:00; Çarşamba,09:00 - 18:00; Perşembe,09:00 - 18:00; Cuma,09:00 - 18:00; Cumartesi,09:00 - 13:00; Pazar,Kapalı.","category":"Reklam Ajansı","rating":"5,0"},{"name":"Sevgi Reklam","address":"Şerefiye mahallesi çınlar sokak ayakkabıcılar sitesi no:10/207, 0542 238 20 45, 81000 Düzce Merkez/Düzce","website":"sevgireklam.com","tel":"0542 238 20 45","mapsUrl":"https://www.google.com.tr/maps/place/Sevgi+Reklam/@40.8438464,31.15654,14z/data=!4m8!1m2!2m1!1sajans!3m4!1s0x409d755abf99ee25:0x87ba6e9371b3c46e!8m2!3d40.8397595!4d31.1614366","openHours":"Pazartesi,08:30 - 07:30; Salı,08:30 - 07:30; Çarşamba,08:30 - 07:30; Perşembe,08:30 - 07:30; Cuma,08:30 - 07:30; Cumartesi,08:30 - 07:30; Pazar,Kapalı.","category":"Reklam Ajansı","rating":" "},{"name":"Artı Reklam Tabela Matbaa Promosyon","address":"Şerifiye mah, Cengiz Topel Sk. 15/B, 81000 Merkez/Düzce","website":"artireklamduzce.business.site","tel":"0555 595 86 13","mapsUrl":"https://www.google.com.tr/maps/place/Art%C4%B1+Reklam+Tabela+Matbaa+Promosyon/@40.8438464,31.15654,14z/data=!4m8!1m2!2m1!1sajans!3m4!1s0x409d752d008b164d:0xdc5f32333b9ecdc3!8m2!3d40.8407385!4d31.1609315","openHours":"Pazartesi,09:00 - 19:00; Salı,09:00 - 19:00; Çarşamba,09:00 - 19:00; Perşembe,09:00 - 19:00; Cuma,09:00 - 19:00; Cumartesi,09:30 - 18:00; Pazar,Kapalı.","category":"Reklam Ajansı","rating":"5,0"},{"name":"Gül Ajans","address":"Şerefiye, Cengiz Topel Sk. No:4, 81010 Düzce Merkez/Düzce","website":"gulajans.com.tr","tel":"(0380) 514 28 99","mapsUrl":"https://www.google.com.tr/maps/place/G%C3%BCl+Ajans/@40.8438464,31.15654,14z/data=!4m8!1m2!2m1!1sajans!3m4!1s0x409d755376960833:0x69d940bce790c0a4!8m2!3d40.839964!4d31.1607299","openHours":" ","category":" ","rating":" "},{"name":"Düzce Web Tasarım - Alse Medya Reklam","address":"Şerefiye, Atatürk Blv., 81100 Düzce Merkez/Düzce","website":" ","tel":"0532 133 63 00","mapsUrl":"https://www.google.com.tr/maps/place/D%C3%BCzce+Web+Tasar%C4%B1m+-+Alse+Medya+Reklam/@40.8438464,31.15654,14z/data=!4m8!1m2!2m1!1sajans!3m4!1s0x409d0ba590d5be11:0x90a6421ada060aae!8m2!3d40.8452524!4d31.1648827","openHours":"Pazartesi,24 saat açık; Salı,24 saat açık; Çarşamba,24 saat açık; Perşembe,24 saat açık; Cuma,24 saat açık; Cumartesi,24 saat açık; Pazar,24 saat açık.","category":"Reklam Ajansı","rating":"5,0"},{"name":"Ajans112 Reklam, Tasarım ve Organizasyon","address":"Eski Sanayi Çarşısı No: 387, D:F, 81600 Merkez/Düzce","website":"ajans112.com","tel":"0532 440 81 81","mapsUrl":"https://www.google.com.tr/maps/place/Ajans112+Reklam,+Tasar%C4%B1m+ve+Organizasyon/@40.8438464,31.15654,14z/data=!4m8!1m2!2m1!1sajans!3m4!1s0x409d75cf7d3051c5:0x82228ebc6e5cad97!8m2!3d40.847415!4d31.1548115","openHours":"Pazartesi,09:00 - 18:30; Salı,09:00 - 18:30; Çarşamba,09:00 - 18:30; Perşembe,09:00 - 18:30; Cuma,09:00 - 18:30; Cumartesi,09:00 - 18:30; Pazar,Kapalı.","category":"Reklam Ajansı","rating":" "},{"name":"Tutkun Ajans Promosyon","address":"Cedidiye, Bolu Cd. No:66, 81020 Düzce Merkez/Düzce","website":" ","tel":" ","mapsUrl":"https://www.google.com.tr/maps/place/Tutkun+Ajans+Promosyon/@40.8438464,31.15654,14z/data=!4m8!1m2!2m1!1sajans!3m4!1s0x409d75466060ec53:0x1f42313a53f7211b!8m2!3d40.8364045!4d31.1686969","openHours":" ","category":" ","rating":" "},{"name":"M&B Ajans","address":"Camikebir, 657. Sk. No:16, 81020 Düzce Merkez/Düzce","website":" ","tel":" ","mapsUrl":"https://www.google.com.tr/maps/place/M%26B+Ajans/@40.8438464,31.15654,14z/data=!4m8!1m2!2m1!1sajans!3m4!1s0x409d755ba218a5fb:0xfae61dae6e5e8659!8m2!3d40.838619!4d31.157209","openHours":" ","category":" ","rating":"5,0"},{"name":"REKLAM KURDU","address":"Kültür, mehmet akif caddesi mazhar osman sokak no:4/A, 81100 merkez/Düzce","website":"reklamkurdu.com","tel":"0552 785 01 81","mapsUrl":"https://www.google.com.tr/maps/place/REKLAM+KURDU/@40.8438464,31.15654,14z/data=!4m8!1m2!2m1!1sajans!3m4!1s0x409d9ff9dbdd9afb:0x488f3b332898b8f3!8m2!3d40.8444699!4d31.1566962","openHours":"Pazartesi,09:00 - 18:00; Salı,09:00 - 18:00; Çarşamba,09:00 - 18:00; Perşembe,09:00 - 18:00; Cuma,09:00 - 18:00; Cumartesi,09:00 - 18:00; Pazar,Kapalı.","category":"Reklam Ajansı","rating":"5,0"},{"name":"Cihan Reklam Ajansı","address":"Merkez Mahallesi, Uzunmustafa Mah. D-100 Karayolu Üzeri, Dsi Karşısı No:457, 81000 Merkez/Düzce","website":"cihanreklamajansi.com","tel":"(0380) 524 64 55","mapsUrl":"https://www.google.com.tr/maps/place/Cihan+Reklam+Ajans%C4%B1/@40.8438464,31.15654,14z/data=!4m8!1m2!2m1!1sajans!3m4!1s0x409d9f712140f7df:0xf18cbe58bd602a5!8m2!3d40.8479718!4d31.1469937","openHours":" ","category":"Reklam Ajansı","rating":" "},{"name":"Serbay Interactive","address":"Merkez, Şerefiye Mh. Rasim Betir Paşa Bulvarı No:3 Kat:3/24, 81010 Düzce Merkez/Düzce","website":"serbay.net","tel":"(0380) 523 27 73","mapsUrl":"https://www.google.com.tr/maps/place/Serbay+Interactive/@40.8438464,31.15654,14z/data=!4m8!1m2!2m1!1sajans!3m4!1s0x409d7559da996a0d:0x9b60e32a869137f7!8m2!3d40.8441237!4d31.1637553","openHours":"Pazartesi,09:00 - 18:00; Salı,09:00 - 18:00; Çarşamba,09:00 - 18:00; Perşembe,09:00 - 18:00; Cuma,09:00 - 18:00; Cumartesi,09:00 - 18:00; Pazar,Kapalı.","category":"Reklam Ajansı","rating":"4,5"},{"name":"REKLAMbu Tabela - Tasarım - Reklam","address":"Azmimilli, Gazhane Cd. No:20/A, 81020 Merkez/Düzce","website":"reklambu.net","tel":"0505 751 20 66","mapsUrl":"https://www.google.com.tr/maps/place/REKLAMbu+Tabela+-+Tasar%C4%B1m+-+Reklam/@40.8438464,31.15654,14z/data=!4m8!1m2!2m1!1sajans!3m4!1s0x409d75176e6c77d1:0x4dcc60776414a654!8m2!3d40.8363029!4d31.1605817","openHours":" ","category":"Reklam Ajansı","rating":"5,0"},{"name":"Biz reklam","address":"Çay, Ela Bahriye Oral Blv. no:17, 81000 Merkez/Düzce","website":"biz-reklam.business.site","tel":"0555 500 10 20","mapsUrl":"https://www.google.com.tr/maps/place/Biz+reklam/@40.8438464,31.15654,14z/data=!4m8!1m2!2m1!1sajans!3m4!1s0x409d75806a339343:0xf39de9b6de4e4685!8m2!3d40.8352177!4d31.150239","openHours":" ","category":"Reklam Ajansı","rating":" "},{"name":"Biz Reklam","address":"Kiremitocağı, Palacı Ahmet Sk. No:10, 81020 Düzce Merkez/Düzce","website":" ","tel":"0532 362 41 03","mapsUrl":"https://www.google.com.tr/maps/place/Biz+Reklam/@40.8438464,31.15654,14z/data=!4m8!1m2!2m1!1sajans!3m4!1s0x409d755f2e2cd0cd:0xc2d8657362e8a3d9!8m2!3d40.8392144!4d31.1496461","openHours":"Pazartesi,08:00 - 18:00; Salı,08:00 - 18:00; Çarşamba,08:00 - 18:00; Perşembe,08:00 - 18:00; Cuma,08:00 - 18:00; Cumartesi,08:00 - 18:00; Pazar,Kapalı.","category":"Reklam Ajansı","rating":"5,0"},{"name":"Coşkun Reklam","address":"Burhaniye, Şht. Ruhsar Cd No:49/B, 81010 Merkez/Düzce","website":"facebook.com","tel":"0537 289 56 05","mapsUrl":"https://www.google.com.tr/maps/place/Co%C5%9Fkun+Reklam/@40.8438464,31.15654,14z/data=!4m8!1m2!2m1!1sajans!3m4!1s0x409d75d178b895ad:0x439308e1cd4b7fd3!8m2!3d40.8401491!4d31.1651309","openHours":"Pazartesi,08:30 - 19:00; Salı,08:30 - 19:00; Çarşamba,08:30 - 19:00; Perşembe,08:30 - 19:00; Cuma,08:30 - 19:00; Cumartesi,08:30 - 19:00; Pazar,Kapalı.","category":"Reklam Ajansı","rating":" "},{"name":"MEDYAGON","address":"Cedidiye Mah. Köprü Sok. Nimet İş Merkezi, D:10, 81000 Merkez/Düzce","website":"medyagon.com","tel":"0552 278 81 42","mapsUrl":"https://www.google.com.tr/maps/place/MEDYAGON/@40.8438464,31.15654,14z/data=!4m8!1m2!2m1!1sajans!3m4!1s0x409d75dbd7b7259f:0xe20e74e767e53ecc!8m2!3d40.8372079!4d31.1627735","openHours":"Pazartesi,09:00 - 19:00; Salı,09:00 - 19:00; Çarşamba,09:00 - 19:00; Perşembe,09:00 - 19:00; Cuma,09:00 - 19:00; Cumartesi,09:00 - 19:00; Pazar,09:00 - 19:00.","category":"Reklam Ajansı","rating":" "},{"name":"Moda Reklam Ajansı","address":"Akınlar, Akınlar, Küçük Sanayi Sitesi, Akınlar Mah, 2615 Sk., 81100 Düzce Merkez/Düzce","website":" ","tel":"(0380) 524 42 24","mapsUrl":"https://www.google.com.tr/maps/place/Moda+Reklam+Ajans%C4%B1/@40.8372079,31.145264,14z/data=!4m8!1m2!2m1!1sajans!3m4!1s0x409d9f8c769f6233:0x479076d6e6e9c074!8m2!3d40.852328!4d31.1176236","openHours":"Pazartesi,09:00 - 18:00; Salı,09:00 - 18:00; Çarşamba,09:00 - 18:00; Perşembe,09:00 - 18:00; Cuma,09:00 - 18:00; Cumartesi,09:00 - 13:00; Pazar,Kapalı.","category":"Reklam Ajansı","rating":" "},{"name":"Turgut Reklam ve Tabela","address":" ","website":"turgutreklam.com","tel":"(0380) 523 06 64","mapsUrl":"https://www.google.com.tr/maps/place/Turgut+Reklam+ve+Tabela/@40.8438464,31.15654,14z/data=!4m8!1m2!2m1!1sajans!3m4!1s0x409d7547463e5e1d:0x48259f849104364f!8m2!3d40.8560805!4d31.147086","openHours":"Pazartesi,09:00 - 19:00; Salı,09:00 - 19:00; Çarşamba,09:00 - 19:00; Perşembe,09:00 - 19:00; Cuma,09:00 - 19:00; Cumartesi,09:00 - 19:00; Pazar,Kapalı.","category":"Reklam Ajansı","rating":"4,3"},{"name":"GRAFİTA REKLAM","address":"Cedidiye, Zaferi Milli Sk. No:12/A, 81020 Düzce Merkez/Düzce","website":"duzcetso.org.tr","tel":"(0380) 514 89 31","mapsUrl":"https://www.google.com.tr/maps/place/GRAF%C4%B0TA+REKLAM/@40.8560805,31.1295765,14z/data=!4m8!1m2!2m1!1sajans!3m4!1s0x409d75c705a82d53:0x747e77f22ee356fe!8m2!3d40.8366354!4d31.1651572","openHours":" ","category":"Reklam Ajansı","rating":"4,0"},{"name":"Tetri Reklam Hizmetleri","address":"Yeni Mahalle, Saka Sk. No:10, 34890 Pendik/İstanbul","website":" ","tel":"(0380) 524 50 00","mapsUrl":"https://www.google.com.tr/maps/place/Tetri+Reklam+Hizmetleri/@40.8438464,31.15654,14z/data=!4m8!1m2!2m1!1sajans!3m4!1s0x409d9ffebb41c1ef:0x759092f47abac8ee!8m2!3d40.8489!4d31.1519834","openHours":"Pazartesi,09:00 - 21:00; Salı,09:00 - 21:00; Çarşamba,09:00 - 21:00; Perşembe,09:00 - 21:00; Cuma,09:00 - 21:00; Cumartesi,09:00 - 21:00; Pazar,Kapalı.","category":"Reklam Ajansı","rating":"5,0"},{"name":"Biz Reklam","address":"Camikebir, Kuyumcuzade Blv. no 67, 81020 Düzce Merkez/Düzce","website":" ","tel":"0555 500 10 20","mapsUrl":"https://www.google.com.tr/maps/place/Biz+Reklam/@40.8438464,31.15654,14z/data=!4m8!1m2!2m1!1sajans!3m4!1s0x409d7524f0821ca9:0xc42bcfaa4145d6c8!8m2!3d40.8385346!4d31.1507373","openHours":" ","category":"Reklam Ajansı","rating":" "},{"name":"Yavuz Ofset Medya ve Reklam","address":"Şerefiye, Rasim Betir Paşa Blv. No:10, 81010, 81010 Düzce Merkez/Düzce","website":" ","tel":"(0380) 512 12 12","mapsUrl":"https://www.google.com.tr/maps/place/Yavuz+Ofset+Medya+ve+Reklam/@40.8385346,31.1332278,14z/data=!4m8!1m2!2m1!1sajans!3m4!1s0x409d7545af6a7f5f:0xa93017fa40b15e6d!8m2!3d40.8443361!4d31.1626297","openHours":"Pazartesi,09:00 - 18:00; Salı,09:00 - 18:00; Çarşamba,09:00 - 18:00; Perşembe,09:00 - 18:00; Cuma,09:00 - 18:00; Cumartesi,09:00 - 18:00; Pazar,Kapalı.","category":"Reklam Ajansı","rating":"4,0"},{"name":"Tmo-düzce Ajans Müdürlüğü","address":"Şerefiye, Uzunzade Sk., 81010 Düzce Merkez/Düzce","website":" ","tel":" ","mapsUrl":"https://www.google.com.tr/maps/place/Tmo-d%C3%BCzce+Ajans+M%C3%BCd%C3%BCrl%C3%BC%C4%9F%C3%BC/@40.8438464,31.15654,14z/data=!4m8!1m2!2m1!1sajans!3m4!1s0x409d755acb92e195:0x96b98de6295d74a5!8m2!3d40.839188!4d31.162009","openHours":" ","category":"Yerel Resmi Daire","rating":"5,0"},{"name":"Tayyare Limanı","address":"Şerefiye, Rasim Betir Paşa Blv. No:3 D:Kat:3 Daire:8, 81100 Merkez/Düzce","website":"tayyarelimani.com","tel":"(0380) 523 27 73","mapsUrl":"https://www.google.com.tr/maps/place/Tayyare+Liman%C4%B1/@40.8438464,31.15654,14z/data=!4m8!1m2!2m1!1sajans!3m4!1s0x409d755173ff801f:0x9caae9257c217355!8m2!3d40.8438133!4d31.1640573","openHours":" ","category":"Reklam Ajansı","rating":"5,0"},{"name":"SH Web ve Grafik Tasarım","address":"Hastane Cad. Serdar Seven İş Merkezi Kat:1 No:25, 81000 Düzce Merkez/Düzce","website":"shtasarim.com","tel":"(0380) 512 04 41","mapsUrl":"https://www.google.com.tr/maps/place/SH+Web+ve+Grafik+Tasar%C4%B1m/@40.8438464,31.15654,14z/data=!4m8!1m2!2m1!1sajans!3m4!1s0x409d9fe16ee57549:0x8964f7ec0eeaec5e!8m2!3d40.840782!4d31.143324","openHours":"Pazartesi,09:00 - 18:30; Salı,09:00 - 18:30; Çarşamba,09:00 - 18:30; Perşembe,09:00 - 18:30; Cuma,09:00 - 18:30; Cumartesi,09:00 - 18:30; Pazar,Kapalı.","category":"Reklam Ajansı","rating":" "},{"name":"Cihan Reklam Ajansı & Tabela","address":"Uzun Mustafa, 866. Sk No:459, 81010, 81010 Düzce Merkez/Düzce","website":"cihanreklamajansi.com","tel":"(0380) 524 64 55","mapsUrl":"https://www.google.com.tr/maps/place/Cihan+Reklam+Ajans%C4%B1+%26+Tabela/@40.8438464,31.15654,14z/data=!4m8!1m2!2m1!1sajans!3m4!1s0x409d9f3c88cff781:0x39ad67cddcb025b!8m2!3d40.8479366!4d31.146952","openHours":"Pazartesi,08:30 - 19:00; Salı,08:30 - 19:00; Çarşamba,08:30 - 19:00; Perşembe,08:30 - 19:00; Cuma,08:30 - 19:00; Cumartesi,08:30 - 17:00; Pazar,Kapalı.","category":"Reklam Ajansı","rating":"5,0"},{"name":"Grafinyum","address":"Camikebir Mah, Mareşal Fevzi Çakmak Sk. No:12 D:107, 81100 Düzce Merkez/Düzce","website":"grafinyum.com.tr","tel":"0536 507 70 71","mapsUrl":"https://www.google.com.tr/maps/place/Grafinyum/@40.8438464,31.15654,14z/data=!4m8!1m2!2m1!1sajans!3m4!1s0x409d7546f7de474f:0x3838706405e6c472!8m2!3d40.8389178!4d31.1582873","openHours":"Pazartesi,09:00 - 19:00; Salı,09:00 - 19:00; Çarşamba,09:00 - 19:00; Perşembe,09:00 - 19:00; Cuma,09:00 - 19:00; Cumartesi,11:00 - 18:00; Pazar,Kapalı.","category":"Reklam Ajansı","rating":"5,0"},{"name":"Panorama Tanıtım","address":"Uzun Mustafa, Kuyumcuzade Blv. No:70, 81010 Merkez/Düzce","website":"panorama-tanitim.com","tel":"0530 950 94 37","mapsUrl":"https://www.google.com.tr/maps/place/Panorama+Tan%C4%B1t%C4%B1m/@40.8438464,31.15654,14z/data=!4m8!1m2!2m1!1sajans!3m4!1s0x409d755874edd6df:0xcd789bd1ab7ed408!8m2!3d40.842726!4d31.151039","openHours":"Pazartesi,09:30 - 23:30; Salı,09:30 - 23:30; Çarşamba,09:30 - 23:30; Perşembe,09:30 - 23:30; Cuma,09:30 - 23:30; Cumartesi,09:30 - 23:30; Pazar,09:30 - 23:30.","category":"Reklam Ajansı","rating":" "},{"name":"Reklamvs","address":"Şerefiye, 334. Sk., 81010 Düzce Merkez/Düzce","website":" ","tel":"0541 838 88 81","mapsUrl":"https://www.google.com.tr/maps/place/Reklamvs/@40.8438464,31.15654,14z/data=!4m8!1m2!2m1!1sajans!3m4!1s0x409d7556c9852db9:0xf87f2afc6a2bb480!8m2!3d40.8449939!4d31.1633546","openHours":"Pazartesi,24 saat açık; Salı,24 saat açık; Çarşamba,24 saat açık; Perşembe,24 saat açık; Cuma,24 saat açık; Cumartesi,24 saat açık; Pazar,Kapalı.","category":"Reklam Ajansı","rating":"4,9"},{"name":"REKLAMOB REKLAM & MOBİLYA","address":"Azmimilli, Gazhane Cd. No:20, 81020 Düzce Merkez/Düzce","website":"reklamob.net","tel":"(0380) 523 35 65","mapsUrl":"https://www.google.com.tr/maps/place/REKLAMOB+REKLAM+%26+MOB%C4%B0LYA/@40.8438464,31.15654,14z/data=!4m8!1m2!2m1!1sajans!3m4!1s0x409d7544a6ce9835:0x6755aad5eb5b381c!8m2!3d40.8362826!4d31.1605921","openHours":" ","category":"Reklam Ajansı","rating":"3,5"},{"name":"Cihan Reklam Ajansı &Tabela","address":"Uzun Mustafa, Düzce/merkez, D-100 karayolu cad no:459/A 81010, 81010 Merkez","website":"cihanreklamajansi.com","tel":"0535 075 81 00","mapsUrl":"https://www.google.com.tr/maps/place/Cihan+Reklam+Ajans%C4%B1+%26Tabela/@40.8438464,31.15654,14z/data=!4m8!1m2!2m1!1sajans!3m4!1s0x409d9f06dacbdb07:0x5ed5abcaafb3a40!8m2!3d40.847991!4d31.147217","openHours":" ","category":"Reklam Ajansı","rating":" "}]