[{"name":"Feraye gökçe kuaför","address":"Burhaniye, Bolu Cd. No:1, 81010 Düzce Merkez/Düzce","website":" ","tel":"0534 581 11 16","mapsUrl":"https://www.google.com/maps/place/Feraye+g%C3%B6k%C3%A7e+kuaf%C3%B6r/@40.843849,31.15654,14z/data=!4m8!1m2!2m1!1za3VhZsO2cg!3m4!1s0x409d7545303a50c3:0xd1f1ce434df342de!8m2!3d40.8390522!4d31.1628666","openHours":"Perşembe,07:45 - 22:00; Cuma,07:45 - 22:00; Cumartesi,07:45 - 22:00; Pazar,07:45 - 22:00; Pazartesi,07:45 - 22:00; Salı,07:45 - 22:00; Çarşamba,07:45 - 22:00.","category":"Kuaför","rating":"4,5"},{"name":"AÇELYA BAYAN KUAFÖRÜ","address":"Şerefiye, Atatürk Blv. No:1, 81010 Düzce Merkez/Düzce","website":" ","tel":" ","mapsUrl":"https://www.google.com/maps/place/A%C3%87ELYA+BAYAN+KUAF%C3%96R%C3%9C/@40.8400004,31.1541856,16z/data=!4m8!1m2!2m1!1za3VhZsO2cg!3m4!1s0x409d75453406d30d:0x5ed418f053967c74!8m2!3d40.838983!4d31.162579","openHours":" ","category":"Kuaför","rating":" "},{"name":"KUAFÖR SUNAY","address":"Cedidiye, Firuze Sk. No:8, 81020 Düzce Merkez/Düzce","website":" ","tel":" ","mapsUrl":"https://www.google.com/maps/place/KUAF%C3%96R+SUNAY/@40.8400004,31.1541856,16z/data=!4m8!1m2!2m1!1za3VhZsO2cg!3m4!1s0x409d755b280bfa39:0xc44d0ac71522093e!8m2!3d40.838607!4d31.1607028","openHours":" ","category":"Kuaför","rating":"5,0"},{"name":"YELDA GÜL SAÇ&TÜRBAN TASARIM MERKEZİ","address":"Camikebir, Mareşal Fevzi Çakmak Sk. no 5, 81000 Merkez/Düzce","website":"business.site","tel":"0541 512 17 13","mapsUrl":"https://www.google.com/maps/place/YELDA+G%C3%9CL+SA%C3%87%26T%C3%9CRBAN+TASARIM+MERKEZ%C4%B0/@40.8400004,31.1541856,16z/data=!4m8!1m2!2m1!1za3VhZsO2cg!3m4!1s0x409d75d950b3da45:0x47e01d15208b4ebf!8m2!3d40.8390441!4d31.1584496","openHours":"Perşembe,08:00 - 20:00; Cuma,08:00 - 20:00; Cumartesi,08:00 - 20:00; Pazar,08:00 - 20:00; Pazartesi,08:00 - 20:00; Salı,08:00 - 20:00; Çarşamba,08:00 - 20:00.","category":"Kuaför","rating":"3,1"},{"name":"Özen Bayan Kuaförü","address":"Hacı Hamdi Sk. No:7,Cedidiye Mahallesi, bulak işhanı zemin kat, 81020 merkez","website":" ","tel":"0535 232 16 38","mapsUrl":"https://www.google.com/maps/place/%C3%96zen+Bayan+Kuaf%C3%B6r%C3%BC/@40.8400004,31.1541856,16z/data=!4m8!1m2!2m1!1za3VhZsO2cg!3m4!1s0x409d757d194b21a3:0xbfa67f53588adc43!8m2!3d40.8381061!4d31.1612958","openHours":"Perşembe,09:30 - 19:00; Cuma,09:30 - 19:00; Cumartesi,09:30 - 19:00; Pazar,09:30 - 19:00; Pazartesi,09:30 - 19:00; Salı,Kapalı; Çarşamba,09:30 - 19:00.","category":"Kuaför","rating":"5,0"},{"name":"Karizma Bayan Kuaförü","address":"Kültür, Mansur Bayram Cd., 81600 Düzce Merkez/Düzce","website":" ","tel":"(0380) 514 19 63","mapsUrl":"https://www.google.com/maps/place/Karizma+Bayan+Kuaf%C3%B6r%C3%BC/@40.8400004,31.1541856,16z/data=!4m8!1m2!2m1!1za3VhZsO2cg!3m4!1s0x409d755a11884967:0x50e651e7ae619b8f!8m2!3d40.8410434!4d31.1582288","openHours":"Perşembe,10:00 - 19:30; Cuma,10:00 - 19:30; Cumartesi,10:00 - 19:30; Pazar,10:00 - 19:30; Pazartesi,10:00 - 19:30; Salı,10:00 - 19:30; Çarşamba,10:00 - 19:30.","category":"Kuaför","rating":"5,0"},{"name":"Kardeşler Bayan Kuaförü","address":"Camikebir, Mareşal Fevzi Çakmak Sok. No:9, 81020 Düzce Merkez/Düzce","website":"firmasec.com","tel":"(0380) 523 73 82","mapsUrl":"https://www.google.com/maps/place/Karde%C5%9Fler+Bayan+Kuaf%C3%B6r%C3%BC/@40.8400004,31.1541856,16z/data=!4m8!1m2!2m1!1za3VhZsO2cg!3m4!1s0x409d7553636d7b27:0xf440ac3f7dab4c2b!8m2!3d40.8389646!4d31.1583634","openHours":" ","category":"Kuaför","rating":"4,2"},{"name":"DENİZ ERKEK KUAFÖRÜ","address":"Burhaniye, General Kazım Sk. No:5 D:1, 81010 Düzce Merkez/Düzce","website":" ","tel":"0545 334 21 69","mapsUrl":"https://www.google.com/maps/place/DEN%C4%B0Z+ERKEK+KUAF%C3%96R%C3%9C/@40.8400004,31.1541856,16z/data=!4m8!1m2!2m1!1za3VhZsO2cg!3m4!1s0x409d756c57d5396d:0x180bbf9be88f1462!8m2!3d40.8390546!4d31.1638879","openHours":" ","category":"Kuaför","rating":"5,0"},{"name":"Damla Sac tasarım merkezi","address":"Burhaniye, Atatürk Blv., 81010 Düzce Merkez/Düzce","website":" ","tel":"0544 464 66 54","mapsUrl":"https://www.google.com/maps/place/Damla+Sac+tasar%C4%B1m+merkezi/@40.8400004,31.1541856,16z/data=!4m8!1m2!2m1!1za3VhZsO2cg!3m4!1s0x409d75500f033325:0xdb0a9f291071bca9!8m2!3d40.8399953!4d31.1630573","openHours":"Perşembe,08:00 - 18:00; Cuma,08:00 - 18:00; Cumartesi,08:00 - 18:00; Pazar,08:00 - 18:00; Pazartesi,08:00 - 18:00; Salı,Kapalı; Çarşamba,08:00 - 18:00.","category":"Kuaför","rating":"5,0"},{"name":"Kuaför Hatice Düzce","address":"Şerefiye, Kuaför Hatice, Necatibey Sk. No:12D, 81010 Merkez/Düzce","website":"business.site","tel":"0544 270 49 39","mapsUrl":"https://www.google.com/maps/place/Kuaf%C3%B6r+Hatice+D%C3%BCzce/@40.8400004,31.1541856,16z/data=!4m8!1m2!2m1!1za3VhZsO2cg!3m4!1s0x409d755a61af8afd:0x48ac1b872e2d0a34!8m2!3d40.842006!4d31.161979","openHours":"Perşembe,10:00 - 18:00; Cuma,10:00 - 18:00; Cumartesi,10:00 - 18:00; Pazar,10:00 - 18:00; Pazartesi,09:00 - 18:00; Salı,Kapalı; Çarşamba,10:00 - 18:00.","category":"Kuaför","rating":"4,9"},{"name":"Işık erkek kuaförü","address":"Şerefiye, Çınlar Sk., 81010 Düzce Merkez/Düzce","website":" ","tel":" ","mapsUrl":"https://www.google.com/maps/place/I%C5%9F%C4%B1k+erkek+kuaf%C3%B6r%C3%BC/@40.8400004,31.1541856,16z/data=!4m8!1m2!2m1!1za3VhZsO2cg!3m4!1s0x409d75a85476f66d:0xe3061d9f8d18a6e8!8m2!3d40.8395867!4d31.1612211","openHours":" ","category":"Kuaför","rating":" "},{"name":"Türkan Bayan Kuaförü","address":"Camikebir, Duman apartmanı, Alemdar Sk. D:kat 2, 81020 Merkez/Düzce","website":" ","tel":"(0380) 523 01 30","mapsUrl":"https://www.google.com/maps/place/T%C3%BCrkan+Bayan+Kuaf%C3%B6r%C3%BC/@40.8400004,31.1541856,16z/data=!4m8!1m2!2m1!1za3VhZsO2cg!3m4!1s0x409d75e1c42db9f3:0x7bd3808ec8b0dcbc!8m2!3d40.8394339!4d31.1570761","openHours":"Perşembe,09:00 - 20:00; Cuma,09:00 - 20:00; Cumartesi,09:00 - 20:00; Pazar,09:00 - 20:00; Pazartesi,09:00 - 20:00; Salı,Kapalı; Çarşamba,09:00 - 20:00.","category":"Kuaför","rating":"4,0"},{"name":"MISS Kadın Kuaförü","address":"Cedidiye, Hükümet Sk. No:14, 81020 Düzce Merkez/Düzce","website":" ","tel":" ","mapsUrl":"https://www.google.com/maps/place/MISS+Kad%C4%B1n+Kuaf%C3%B6r%C3%BC/@40.8400004,31.1541856,16z/data=!4m8!1m2!2m1!1za3VhZsO2cg!3m4!1s0x409d7544c0554727:0x82352e09e5af65ef!8m2!3d40.837257!4d31.1618248","openHours":" ","category":"Kuaför","rating":" "},{"name":"Kuaför Ersin","address":"Kültür, Alan Sk. No:4, 81600 Düzce Merkez/Düzce","website":"kuaforersin.com.tr","tel":"(0380) 512 30 11","mapsUrl":"https://www.google.com/maps/place/Kuaf%C3%B6r+Ersin/@40.8400004,31.1541856,16z/data=!4m8!1m2!2m1!1za3VhZsO2cg!3m4!1s0x409d7553636d7b27:0xfe32651e274e6b74!8m2!3d40.842744!4d31.1547935","openHours":"Perşembe,08:00 - 19:30; Cuma,08:00 - 19:30; Cumartesi,08:00 - 19:30; Pazar,08:00 - 19:30; Pazartesi,08:00 - 19:30; Salı,Kapalı; Çarşamba,08:00 - 19:30.","category":"Kuaför","rating":"4,4"},{"name":"Konak Kadın Kuaförü","address":"Camikebir, Konuralp Sk. No:2, 81020 Düzce Merkez/Düzce","website":" ","tel":" ","mapsUrl":"https://www.google.com/maps/place/Konak+Kad%C4%B1n+Kuaf%C3%B6r%C3%BC/@40.8400004,31.1541856,16z/data=!4m8!1m2!2m1!1za3VhZsO2cg!3m4!1s0x409d755911de07b5:0x1e6a805166866d6d!8m2!3d40.840184!4d31.153238","openHours":" ","category":"Kuaför","rating":"4,3"},{"name":"Altınsaray Erkek Kuaförü","address":"Şerefiye, Çınlar Sk. No:4, 81010 Düzce Merkez/Düzce","website":" ","tel":" ","mapsUrl":"https://www.google.com/maps/place/Alt%C4%B1nsaray+Erkek+Kuaf%C3%B6r%C3%BC/@40.8400004,31.1541856,16z/data=!4m8!1m2!2m1!1za3VhZsO2cg!3m4!1s0x409d755ac55e6c1d:0x91e6f8c09a2ed5cf!8m2!3d40.8391339!4d31.1612931","openHours":" ","category":"Kuaför","rating":"3,0"},{"name":"Stil Bayan Kuaför Mehmet / Düzce","address":"Kültür, Konak Sk. No:1, 81600 Düzce Merkez/Düzce","website":" ","tel":"(0380) 523 38 85","mapsUrl":"https://www.google.com/maps/place/Stil+Bayan+Kuaf%C3%B6r+Mehmet+%2F+D%C3%BCzce/@40.8400004,31.1541856,16z/data=!4m8!1m2!2m1!1za3VhZsO2cg!3m4!1s0x409d755a21e1d2db:0x922eae28f8d33a48!8m2!3d40.8409282!4d31.1570053","openHours":"Perşembe,09:00 - 21:00; Cuma,09:00 - 21:00; Cumartesi,09:00 - 21:00; Pazar,09:00 - 21:00; Pazartesi,09:00 - 21:00; Salı,09:00 - 21:00; Çarşamba,09:00 - 21:00.","category":"Kuaför","rating":"3,6"},{"name":"FATOŞ SAÇ TASARIM MERKEZİ","address":"Kültür, Konak Sk. No:5, 81010 Düzce Merkez/Düzce","website":"facebook.com","tel":"(0380) 523 08 45","mapsUrl":"https://www.google.com/maps/place/FATO%C5%9E+SA%C3%87+TASARIM+MERKEZ%C4%B0/@40.8400004,31.1541856,16z/data=!4m8!1m2!2m1!1za3VhZsO2cg!3m4!1s0x409d7559f5fb55a5:0x4864e1699574e314!8m2!3d40.841244!4d31.1570127","openHours":"Perşembe,08:30 - 19:30; Cuma,08:30 - 19:30; Cumartesi,08:30 - 19:30; Pazar,08:30 - 19:30; Pazartesi,08:30 - 19:30; Salı,08:30 - 19:30; Çarşamba,08:30 - 19:30.","category":"Kuaför","rating":"3,8"},{"name":"Tuğçe Kuaför & Güzellik Salonu","address":"Camikebir, 81020 Düzce Merkez/Düzce","website":" ","tel":"(0380) 523 77 00","mapsUrl":"https://www.google.com/maps/place/Tu%C4%9F%C3%A7e+Kuaf%C3%B6r+%26+G%C3%BCzellik+Salonu/@40.8400004,31.1541856,16z/data=!4m8!1m2!2m1!1za3VhZsO2cg!3m4!1s0x409d755708fbbd3f:0x12c0cbd5e5bb73fa!8m2!3d40.8390389!4d31.1585105","openHours":"Perşembe,08:00 - 20:00; Cuma,08:00 - 20:00; Cumartesi,08:00 - 20:00; Pazar,08:00 - 20:00; Pazartesi,08:00 - 20:00; Salı,08:00 - 20:00; Çarşamba,08:00 - 20:00.","category":"Kuaför","rating":"3,7"},{"name":"Şimal Bayan Kuaförü Cemile","address":"Şimal Bayan Kuaförü Cemile Kültür mh. Kültür sk. Ethemin Yeri karşısı No:2 Kat:2, 81600 Merkez/Düzce","website":" ","tel":"0541 842 28 86","mapsUrl":"https://www.google.com/maps/place/%C5%9Eimal+Bayan+Kuaf%C3%B6r%C3%BC+Cemile/@40.8400004,31.1541856,16z/data=!4m8!1m2!2m1!1za3VhZsO2cg!3m4!1s0x409d758772e08029:0x371d8fd4878492a3!8m2!3d40.8402676!4d31.1587322","openHours":"Perşembe,09:00 - 20:30; Cuma,09:00 - 20:30; Cumartesi,09:00 - 20:30; Pazar,09:00 - 20:30; Pazartesi,09:00 - 20:30; Salı,Kapalı; Çarşamba,09:00 - 20:30.","category":"Kuaför","rating":"5,0"}]