[{"name":"Gösterişli Kuyumculuk","address":"Cedidiye, İstanbul Cd. NO:5, 81010 Düzce Merkez/Düzce","website":"g.page","tel":"0532 480 06 89","mapsUrl":"https://www.google.com/maps/place/G%C3%B6steri%C5%9Fli+Kuyumculuk/@40.843849,31.15654,14z/data=!4m8!1m2!2m1!1skuyumcu!3m4!1s0x409d7565d5455929:0x6675de6e5ae91c9c!8m2!3d40.838757!4d31.161362","openHours":"Çarşamba,09:00 - 20:00; Perşembe,09:00 - 20:00; Cuma,09:00 - 20:00; Cumartesi,09:00 - 20:00; Pazar,11:00 - 19:00; Pazartesi,09:00 - 20:00; Salı,09:00 - 20:00.","category":"Kuyumcu","rating":"3,8"},{"name":"Şaban Kılıç Altın&Pırlanta","address":"Şerefiye, İstanbul Cd. no 22, 81010 Düzce Merkez/Düzce","website":" ","tel":"(0380) 514 15 60","mapsUrl":"https://www.google.com/maps/place/%C5%9Eaban+K%C4%B1l%C4%B1%C3%A7+Alt%C4%B1n%26P%C4%B1rlanta/@40.8438464,31.15654,14z/data=!4m8!1m2!2m1!1skuyumcu!3m4!1s0x409d7545323f94df:0x985225a21cdf1cf3!8m2!3d40.838929!4d31.1621329","openHours":"Çarşamba,09:00 - 19:30; Perşembe,09:00 - 19:30; Cuma,09:00 - 19:30; Cumartesi,09:00 - 19:30; Pazar,10:30 - 18:30; Pazartesi,09:00 - 19:30; Salı,09:00 - 19:30.","category":"Kuyumcu","rating":"4,1"},{"name":"Nasip Kuyumculuk","address":"Kültür, İstanbul Cd., 81600 Düzce Merkez/Düzce","website":"iyifirma.com","tel":"(0380) 523 85 46","mapsUrl":"https://www.google.com/maps/place/Nasip+Kuyumculuk/@40.8438464,31.15654,14z/data=!4m8!1m2!2m1!1skuyumcu!3m4!1s0x409d755afe94f7af:0xb6d35ef48ec47052!8m2!3d40.8394747!4d31.1591158","openHours":"Çarşamba,09:00 - 19:30; Perşembe,09:00 - 19:30; Cuma,09:00 - 19:30; Cumartesi,09:00 - 19:30; Pazar,09:00 - 19:30; Pazartesi,09:00 - 19:30; Salı,09:00 - 19:30.","category":"Kuyumcu","rating":"2,0"},{"name":"Can Kuyumcu","address":"Cedidiye, Bayraktar Sk. 1/E, 81100 Düzce Merkez/Düzce","website":" ","tel":"(0380) 514 77 00","mapsUrl":"https://www.google.com/maps/place/Can+Kuyumcu/@40.8438464,31.15654,14z/data=!4m8!1m2!2m1!1skuyumcu!3m4!1s0x409d7554a6af5b55:0xbec3829638a1eb75!8m2!3d40.8387943!4d31.160172","openHours":"Çarşamba,08:00 - 07:00; Perşembe,08:00 - 07:00; Cuma,08:00 - 07:00; Cumartesi,08:00 - 07:00; Pazar,08:00 - 07:00; Pazartesi,08:00 - 07:00; Salı,08:00 - 07:00.","category":"Kuyumcu","rating":"5,0"},{"name":"Mutlu Kuyumculuk","address":"Cedidiye, 81010 Düzce Merkez/Düzce","website":" ","tel":" ","mapsUrl":"https://www.google.com/maps/place/Mutlu+Kuyumculuk/@40.8438464,31.15654,14z/data=!4m8!1m2!2m1!1skuyumcu!3m4!1s0x409d755ae1e65e87:0x9caeb0ea90c73831!8m2!3d40.8389764!4d31.1597503","openHours":" ","category":"Kuyumcu","rating":" "},{"name":"Kuşçuoğlu Kuyumculuk","address":"Şerefiye, İstanbul Cd. No:56, 81010 Düzce Merkez/Düzce","website":"kuscuoglugrup.com","tel":"(0380) 514 16 85","mapsUrl":"https://www.google.com/maps/place/Ku%C5%9F%C3%A7uo%C4%9Flu+Kuyumculuk/@40.8438464,31.15654,14z/data=!4m8!1m2!2m1!1skuyumcu!3m4!1s0x409d755adbcba499:0x398051d023e4ee1f!8m2!3d40.8390513!4d31.1606883","openHours":" ","category":"Kuyumcu","rating":"5,0"},{"name":"Eymen Kuyumculuk Düzce","address":"Cedidiye, İstanbul Cd. No:5, 81100 Düzce Merkez/Düzce","website":" ","tel":"0505 567 35 91","mapsUrl":"https://www.google.com/maps/place/Eymen+Kuyumculuk+D%C3%BCzce/@40.8438464,31.15654,14z/data=!4m8!1m2!2m1!1skuyumcu!3m4!1s0x409d7507b1d68dad:0xc8db1f668e6ec972!8m2!3d40.838792!4d31.1612288","openHours":"Çarşamba,08:30 - 20:30; Perşembe,08:30 - 20:30; Cuma,08:30 - 20:30; Cumartesi,08:30 - 20:30; Pazar,Kapalı; Pazartesi,08:30 - 20:30; Salı,08:30 - 20:30.","category":"Kuyumcu","rating":" "},{"name":"ESEN Kuyumculuk","address":"Camikebir, İstanbul Cd. no:13/bc, 81010 merkez/Düzce","website":"esenkuyumculuk.com.tr","tel":"(0380) 524 01 01","mapsUrl":"https://www.google.com/maps/place/ESEN+Kuyumculuk/@40.8438464,31.15654,14z/data=!4m8!1m2!2m1!1skuyumcu!3m4!1s0x409d752f120bf3a7:0xdaadd9ca5d1e5998!8m2!3d40.83928!4d31.15861","openHours":"Çarşamba,09:00 - 19:30; Perşembe,09:00 - 19:30; Cuma,09:00 - 19:30; Cumartesi,09:00 - 19:30; Pazar,Kapalı; Pazartesi,09:00 - 19:30; Salı,09:00 - 19:30.","category":"Kuyumcu","rating":"3,4"},{"name":"Tok Kuyumculuk","address":"Şerefiye, İstanbul Cad. No:20, 81010 Düzce Merkez/Düzce","website":" ","tel":"(0380) 514 82 05","mapsUrl":"https://www.google.com/maps/place/Tok+Kuyumculuk/@40.8438464,31.15654,14z/data=!4m8!1m2!2m1!1skuyumcu!3m4!1s0x409d0aab412e469b:0x4759010904444093!8m2!3d40.8390145!4d31.1601337","openHours":" ","category":"Kuyumcu","rating":" "},{"name":"Öztürkzade Kuyumculuk","address":"Azmimilli, Bayraktar Sok. No:12, 81020 Düzce Merkez/Düzce","website":" ","tel":"(0380) 524 46 62","mapsUrl":"https://www.google.com/maps/place/%C3%96zt%C3%BCrkzade+Kuyumculuk/@40.8438464,31.15654,14z/data=!4m8!1m2!2m1!1skuyumcu!3m4!1s0x409d75536685eb35:0x583d8aa7b226fde8!8m2!3d40.8310174!4d31.1674146","openHours":" ","category":"Kuyumcu","rating":" "},{"name":"Lizay Pırlanta","address":"Şerefiye, İstanbul Cd. No:42, 81010, 81010 Düzce Merkez/Düzce","website":"lizaypirlanta.com","tel":"(0380) 514 13 14","mapsUrl":"https://www.google.com/maps/place/Lizay+P%C4%B1rlanta/@40.8438464,31.15654,14z/data=!4m8!1m2!2m1!1skuyumcu!3m4!1s0x409d751517ff9297:0xdd04f05fdf93df17!8m2!3d40.8389944!4d31.161201","openHours":"Çarşamba,08:30 - 19:00; Perşembe,08:30 - 19:00; Cuma,08:30 - 19:00; Cumartesi,08:30 - 19:00; Pazar,Kapalı; Pazartesi,08:30 - 19:00; Salı,08:30 - 19:00.","category":"Kuyumcu","rating":"5,0"},{"name":"Kalaycıoğlu Kuyumculuk","address":"Kültür, Kunduracılar Sok. No:15, 81600 Düzce Merkez/Düzce","website":"iyifirma.com","tel":"(0380) 523 15 15","mapsUrl":"https://www.google.com/maps/place/Kalayc%C4%B1o%C4%9Flu+Kuyumculuk/@40.8438464,31.15654,14z/data=!4m8!1m2!2m1!1skuyumcu!3m4!1s0x409d755b02c6ef3d:0xe0532f69308958b3!8m2!3d40.843849!4d31.15654","openHours":" ","category":"Kuyumcu","rating":" "},{"name":"Sayın Kuyumculuk","address":"Camikebir, Cevat Şahin Sok. Yılmaz Ocak İş Hanı No:5, 81020 Düzce Merkez/Düzce","website":" ","tel":"(0380) 514 29 07","mapsUrl":"https://www.google.com/maps/place/Say%C4%B1n+Kuyumculuk/@40.8438464,31.15654,14z/data=!4m8!1m2!2m1!1skuyumcu!3m4!1s0x409d75539c35f311:0xe3c7cd5eb1f1e854!8m2!3d40.838788!4d31.157561","openHours":"Çarşamba,09:00 - 17:30; Perşembe,09:00 - 17:30; Cuma,09:00 - 17:30; Cumartesi,Kapalı; Pazar,Kapalı; Pazartesi,09:00 - 17:30; Salı,09:00 - 17:30.","category":"Kuyumcu","rating":" "},{"name":"ASİL KUYUMCULUK BPN/WESTERN UNİON DÜZCE","address":"Asil Kuyumculuk, İstanbul cad. Kültür mahallesi Krempark avm kat. 1 no. 106, 81100 Merkez/Düzce","website":" ","tel":"(0380) 790 14 04","mapsUrl":"https://www.google.com/maps/place/AS%C4%B0L+KUYUMCULUK+BPN%2FWESTERN+UN%C4%B0ON+D%C3%9CZCE/@40.8438464,31.15654,14z/data=!4m8!1m2!2m1!1skuyumcu!3m4!1s0x409d755901fb7fa5:0x46b3cf08a54ddafb!8m2!3d40.840827!4d31.152591","openHours":"Çarşamba,10:00 - 22:00; Perşembe,10:00 - 22:00; Cuma,10:00 - 22:00; Cumartesi,10:00 - 22:00; Pazar,10:00 - 22:00; Pazartesi,10:00 - 22:00; Salı,10:00 - 22:00.","category":"Kuyumcu","rating":"4,4"},{"name":"Ekrem Kuyumculuk - Gelinlik Nakliye","address":"Şerefiye, İstanbul Cd. No:62, 81010 Düzce Merkez/Düzce","website":" ","tel":"(0380) 524 62 60","mapsUrl":"https://www.google.com/maps/place/Ekrem+Kuyumculuk+-+Gelinlik+Nakliye/@40.8438464,31.15654,14z/data=!4m8!1m2!2m1!1skuyumcu!3m4!1s0x409d756cda5e8fc9:0xf3889d778a08e24b!8m2!3d40.8390601!4d31.1610129","openHours":" ","category":"Kuyumcu","rating":" "},{"name":"Altın Gümüş","address":"Kültür, Spor Sk. No:13, 81600 Düzce Merkez/Düzce","website":" ","tel":"(0380) 523 49 38","mapsUrl":"https://www.google.com/maps/place/Alt%C4%B1n+G%C3%BCm%C3%BC%C5%9F/@40.8438464,31.15654,14z/data=!4m8!1m2!2m1!1skuyumcu!3m4!1s0x409d75549fdf2d37:0x3b32254c8ba27c9a!8m2!3d40.8400719!4d31.1586772","openHours":" ","category":"Kuyumcu","rating":"3,0"},{"name":"Eğilmez Kuyumcusu","address":"Kültür, Büyük Cami Meydanı Eğilmez Pasajı No:1, 81600 Düzce Merkez/Düzce","website":" ","tel":"(0380) 523 65 40","mapsUrl":"https://www.google.com/maps/place/E%C4%9Filmez+Kuyumcusu/@40.8438464,31.15654,14z/data=!4m8!1m2!2m1!1skuyumcu!3m4!1s0x409da0faa7d0da0d:0x42c263bf27925f6a!8m2!3d40.843849!4d31.15654","openHours":" ","category":"Kuyumcu","rating":"5,0"},{"name":"Dilek Kuyumcusu","address":"Kültür, Mehmet Akif Cd., 81600 Düzce Merkez/Düzce","website":" ","tel":" ","mapsUrl":"https://www.google.com/maps/place/Dilek+Kuyumcusu/@40.8438464,31.15654,14z/data=!4m8!1m2!2m1!1skuyumcu!3m4!1s0x409d7559bfec9d3d:0x27c7f99fe3fd4cd0!8m2!3d40.84143!4d31.155153","openHours":" ","category":"Kuyumcu","rating":" "},{"name":"Metekler Kuyumculuk","address":"Kültür, Spor Sk. No:13, 81600 Düzce Merkez/Düzce","website":" ","tel":"(0380) 514 64 31","mapsUrl":"https://www.google.com/maps/place/Metekler+Kuyumculuk/@40.8438464,31.15654,14z/data=!4m8!1m2!2m1!1skuyumcu!3m4!1s0x409d75452d68d113:0x5c2ff6f4d01941e9!8m2!3d40.832824!4d31.143658","openHours":" ","category":"Kuyumcu","rating":"3,3"},{"name":"Metin Kuyumculuk","address":"Cedidiye, Bayraktar Sk. NO: 2, 81020 Düzce Merkez/Düzce","website":" ","tel":" ","mapsUrl":"https://www.google.com/maps/place/Metin+Kuyumculuk/@40.8438464,31.15654,14z/data=!4m8!1m2!2m1!1skuyumcu!3m4!1s0x409d755ad8a2a561:0x9ef48727e957bc80!8m2!3d40.8387251!4d31.1604777","openHours":" ","category":" ","rating":" "},{"name":"Düzce gümüş","address":"Şerefiye, Şht. Ruhsar Sk. No:23, 81010 Düzce Merkez/Düzce","website":" ","tel":" ","mapsUrl":"https://www.google.com/maps/place/D%C3%BCzce+g%C3%BCm%C3%BC%C5%9F/@40.8438464,31.15654,14z/data=!4m9!1m3!2m2!1skuyumcu!6e6!3m4!1s0x409d759522496a2d:0x47a3251de2927678!8m2!3d40.8406277!4d31.1624324","openHours":" ","category":"Kuyumcu","rating":" "},{"name":"Zeki Devrim Altın Gümüş","address":"Darıcı, İbrahimoğlu Pasajı No:41, 81100 Düzce Merkez/Düzce","website":" ","tel":"(0380) 514 48 37","mapsUrl":"https://www.google.com/maps/place/Zeki+Devrim+Alt%C4%B1n+G%C3%BCm%C3%BC%C5%9F/@40.8438464,31.15654,14z/data=!4m9!1m3!2m2!1skuyumcu!6e6!3m4!1s0x409d756cc4d9a6bf:0x5f533dd47d0887c4!8m2!3d40.8254395!4d31.1602358","openHours":" ","category":"Kuyumcu","rating":" "},{"name":"Storks","address":"Şerefiye, İstanbul Cad. No:80, 81010 Düzce Merkez/Düzce","website":"storks.com.tr","tel":"(0380) 514 46 81","mapsUrl":"https://www.google.com/maps/place/Storks/@40.8438464,31.15654,14z/data=!4m9!1m3!2m2!1skuyumcu!6e6!3m4!1s0x409d755ae3a68953:0x24426a85173341d7!8m2!3d40.8391665!4d31.1596607","openHours":" ","category":"Elmas Satıcısı","rating":" "},{"name":"Nejat Kuyumculuk","address":"Cedidiye, Bayraktar Sk. NO: 2, 81020 Düzce Merkez/Düzce","website":" ","tel":" ","mapsUrl":"https://www.google.com/maps/place/Nejat+Kuyumculuk/@40.8438464,31.15654,14z/data=!4m9!1m3!2m2!1skuyumcu!6e6!3m4!1s0x409d755ad8a2a561:0xe669d5876a9912b5!8m2!3d40.8387251!4d31.1604777","openHours":" ","category":" ","rating":" "},{"name":"Destan Tesbih","address":"Şerefiye mah Atatürk Bulvarı, Şht. Ruhsar Sk. No:23, 81081 Merkez","website":"destantesbih.com","tel":"0541 541 16 34","mapsUrl":"https://www.google.com/maps/place/Destan+Tesbih/@40.8438464,31.15654,14z/data=!4m9!1m3!2m2!1skuyumcu!6e6!3m4!1s0x14caa481ea5ea691:0x596df0b7398e5bbe!8m2!3d40.8406275!4d31.1624331","openHours":"Çarşamba,09:30 - 20:30; Perşembe,09:30 - 20:30; Cuma,09:30 - 20:30; Cumartesi,09:30 - 20:30; Pazar,Kapalı; Pazartesi,09:30 - 20:30; Salı,09:30 - 20:30.","category":"Kuyumcu","rating":"4,8"},{"name":"Metekler Kuyumcu Saat","address":"Şerefiye, Atatürk Blv. No:1, 81010 Düzce Merkez/Düzce","website":" ","tel":" ","mapsUrl":"https://www.google.com/maps/place/Metekler+Kuyumcu+Saat/@40.8438464,31.15654,14z/data=!4m9!1m3!2m2!1skuyumcu!6e6!3m4!1s0x409d754534055b79:0x7de75613b3416dfd!8m2!3d40.8390053!4d31.1625793","openHours":" ","category":" ","rating":" "},{"name":"Takı'cım","address":"Uzun Mustafa, 865. Sok. No:3, 81010 Düzce Merkez/Düzce","website":" ","tel":"(0380) 523 33 03","mapsUrl":"https://www.google.com/maps/place/Tak%C4%B1'c%C4%B1m/@40.8438464,31.15654,14z/data=!4m9!1m3!2m2!1skuyumcu!6e6!3m4!1s0x409d7554acd5d107:0x261dcf259de5c5cb!8m2!3d40.844179!4d31.149898","openHours":" ","category":"Kuyumcu","rating":" "},{"name":"Platin Döviz","address":"Merkez, İstanbul Cd. No:98, 81100 Düzce Merkez/Düzce","website":"fotoserce.com","tel":"(0380) 512 33 38","mapsUrl":"https://www.google.com/maps/place/Platin+D%C3%B6viz/@40.8438464,31.15654,14z/data=!4m9!1m3!2m2!1skuyumcu!6e6!3m4!1s0x409d756cda5e8fc9:0xd3eb9248137cd98b!8m2!3d40.8393621!4d31.1592153","openHours":" ","category":" ","rating":"3,8"},{"name":"Osman Kuyumcu Aihl","address":"Nusrettin, İlim Sk., 81010 Düzce Merkez/Düzce","website":"meb.k12.tr","tel":"(0380) 523 24 14","mapsUrl":"https://www.google.com/maps/place/Osman+Kuyumcu+Aihl/@40.8438464,31.15654,14z/data=!4m9!1m3!2m2!1skuyumcu!6e6!3m4!1s0x409d754613c67d6b:0x637a96c2a283c9c3!8m2!3d40.8377934!4d31.1692871","openHours":"Çarşamba,08:00 - 17:00; Perşembe,08:00 - 17:00; Cuma,08:00 - 17:00; Cumartesi,Kapalı; Pazar,Kapalı; Pazartesi,08:00 - 17:00; Salı,08:00 - 17:00.","category":"Okul","rating":"3,4"},{"name":"Efe Kuyumculuk","address":"Şehit Kemal Işıldak, Çarşıiçi Cd., 81620 Konuralp Bld./Düzce Merkez/Düzce","website":" ","tel":" ","mapsUrl":"https://www.google.com/maps/place/Efe+Kuyumculuk/@40.9048028,31.1297618,14z/data=!4m9!1m3!2m2!1skuyumcu!6e6!3m4!1s0x409da110af5e97a7:0xb5c9f795a838a79f!8m2!3d40.9048028!4d31.1472713","openHours":" ","category":"Kuyumcu","rating":"1,0"},{"name":"Şeyda","address":"Burhaniye, 81010 Düzce Merkez/Düzce","website":" ","tel":" ","mapsUrl":"https://www.google.com/maps/place/%C5%9Eeyda/@40.8438464,31.15654,14z/data=!4m9!1m3!2m2!1skuyumcu!6e6!3m4!1s0x409d757b7e12a183:0x79574044055b4b32!8m2!3d40.83872!4d31.162609","openHours":" ","category":"Tütün ürünleri mağazası","rating":" "},{"name":"Yonca Kitap Kırtasiye","address":"Şerefiye, Süleyman Kuyumcu Cad. No:17, 81010 Düzce Merkez/Düzce","website":" ","tel":"(0380) 524 50 30","mapsUrl":"https://www.google.com/maps/place/Yonca+Kitap+K%C4%B1rtasiye/@40.8438464,31.15654,14z/data=!4m9!1m3!2m2!1skuyumcu!6e6!3m4!1s0x409d7554a5865d7d:0x214e99cf3b7d1e7f!8m2!3d40.8405924!4d31.159664","openHours":" ","category":"Kitapçı","rating":"5,0"},{"name":"Esen Kardeşler Turizm","address":"Çay, Kuyumcular Sok. 2/D, 81020 Düzce Merkez/Düzce","website":" ","tel":"(0380) 512 14 07","mapsUrl":"https://www.google.com/maps/place/Esen+Karde%C5%9Fler+Turizm/@40.8438464,31.15654,14z/data=!4m9!1m3!2m2!1skuyumcu!6e6!3m4!1s0x409d756cc528cadd:0x2eb494a18d805717!8m2!3d40.8369162!4d31.1584011","openHours":" ","category":" ","rating":" "},{"name":"Orhan Kuyumculuk","address":"Şerefiye, Düzce Cd. No:21, 81750 Çilimli/Düzce","website":" ","tel":" ","mapsUrl":"https://www.google.com/maps/place/Orhan+Kuyumculuk/@40.8934588,31.0293086,14z/data=!4m9!1m3!2m2!1skuyumcu!6e6!3m4!1s0x409da271fdba48bb:0xd747557bf79ac1a6!8m2!3d40.8934588!4d31.0468181","openHours":" ","category":"Kuyumcu","rating":"3,0"},{"name":"Eşarpland","address":"Şerefiye, Süleyman Kuyumcu Cd. No:25, 81600 Merkez/Düzce Merkez/Düzce","website":" ","tel":"0505 738 72 38","mapsUrl":"https://www.google.com/maps/place/E%C5%9Farpland/@40.8438464,31.15654,14z/data=!4m9!1m3!2m2!1skuyumcu!6e6!3m4!1s0x409d755a62998f17:0xc648fd40fa340b52!8m2!3d40.8406496!4d31.1595548","openHours":"Çarşamba,09:00 - 20:30; Perşembe,09:00 - 20:30; Cuma,09:00 - 20:30; Cumartesi,09:00 - 20:30; Pazar,09:00 - 20:30; Pazartesi,09:00 - 20:30; Salı,09:00 - 20:30.","category":"Giyim mağazası","rating":" "},{"name":"Firuze Kuyumculuk","address":"Merkez, 81902 Kaynaşlı/Düzce","website":" ","tel":" ","mapsUrl":"https://www.google.com/maps/place/Firuze+Kuyumculuk/@40.7723469,31.3010275,14z/data=!4m9!1m3!2m2!1skuyumcu!6e6!3m4!1s0x409d6d7d991b4539:0x2a5a5b333f72dbbe!8m2!3d40.7723469!4d31.318537","openHours":" ","category":"Kuyumcu","rating":" "},{"name":"Gözde Kuyumculuk","address":"İmamlar, Cumhuriyet Cd. 30/A, 81800 Gölyaka/Düzce","website":" ","tel":"(0380) 711 46 81","mapsUrl":"https://www.google.com/maps/place/G%C3%B6zde+Kuyumculuk/@40.776712,30.9790135,14z/data=!4m9!1m3!2m2!1skuyumcu!6e6!3m4!1s0x409d9ce4fb988579:0x68df672c037a3e7d!8m2!3d40.776712!4d30.996523","openHours":" ","category":"Kuyumcu","rating":" "},{"name":"Birlik Yapı","address":"Kültür, Süleyman Kuyumcu Cd. No:65, 81600 Düzce Merkez/Düzce","website":" ","tel":" ","mapsUrl":"https://www.google.com/maps/place/Birlik+Yap%C4%B1/@40.8438464,31.15654,14z/data=!4m9!1m3!2m2!1skuyumcu!6e6!3m4!1s0x409d7556ced24c4f:0xa91257f6c9c88593!8m2!3d40.8442815!4d31.1600973","openHours":" ","category":"Yapı Malzemeleri Mağazası","rating":" "},{"name":"Düşes Butik","address":"Kültür, Süleyman Kuyumcu Cd. No:35/C, 81010 Merkez/Düzce","website":"dusesbutik.com","tel":"(0380) 512 32 62","mapsUrl":"https://www.google.com/maps/place/D%C3%BC%C5%9Fes+Butik/@40.8438464,31.15654,14z/data=!4m9!1m3!2m2!1skuyumcu!6e6!3m4!1s0x409d75dd35b17a2f:0xc98633439abb14ad!8m2!3d40.8414263!4d31.1600114","openHours":"Çarşamba,08:30 - 20:30; Perşembe,08:30 - 20:30; Cuma,08:30 - 20:30; Cumartesi,08:30 - 20:30; Pazar,Kapalı; Pazartesi,08:30 - 20:30; Salı,08:30 - 20:30.","category":"Kadın giyim mağazası","rating":"5,0"},{"name":"Alparslan Kuyumculuk","address":"Kültür, Cumhuriyet Cad. Şentürk Pasajı 37/C, 81800 Gölyaka/Düzce","website":" ","tel":"(0380) 711 29 66","mapsUrl":"https://www.google.com/maps/place/Alparslan+Kuyumculuk/@40.7771377,30.9784626,14z/data=!4m9!1m3!2m2!1skuyumcu!6e6!3m4!1s0x409d7550432ed8f7:0xb25f6bd19fe7efe0!8m2!3d40.7771377!4d30.9959721","openHours":"Çarşamba,09:30 - 17:30; Perşembe,09:30 - 17:30; Cuma,09:30 - 17:30; Cumartesi,Kapalı; Pazar,Kapalı; Pazartesi,09:30 - 17:30; Salı,09:30 - 17:30.","category":"Kuyumcu","rating":"4,0"}]