[{"name":"Dream Ajans Manisa","address":"1. Anafartalar, 1610. Sk. No:3, 45020 Manisa Merkez/Manisa","website":"dreamajansmanisa.business.site","tel":"0544 345 94 96","mapsUrl":"https://www.google.com.tr/maps/place/Dream+Ajans+Manisa/@38.619099,27.428921,14z/data=!4m8!1m2!2m1!1sajans!3m4!1s0x14b99de9e2ebb7bd:0xd06aaad484267755!8m2!3d38.6142001!4d27.4317615","openHours":"Pazartesi,24 saat açık; Salı,24 saat açık; Çarşamba,24 saat açık; Perşembe,24 saat açık; Cuma,24 saat açık; Cumartesi,24 saat açık; Pazar,24 saat açık.","category":"Reklam Ajansı","rating":" "},{"name":"AGON AJANS","address":"Çarşı Blv. No:64,Utku,45010 Manisa Merkez/Manisa, 45000 Şehzadeler/Manisa","website":" ","tel":"(0236) 250 41 45","mapsUrl":"https://www.google.com.tr/maps/place/AGON+AJANS/@38.6190964,27.428921,14z/data=!4m8!1m2!2m1!1sajans!3m4!1s0x14b99c6a8ec5a09b:0xfef4ccdf92514cfb!8m2!3d38.611446!4d27.429628","openHours":"Pazartesi,09:00 - 18:00; Salı,09:00 - 18:00; Çarşamba,09:00 - 18:00; Perşembe,09:00 - 18:00; Cuma,09:00 - 18:00; Cumartesi,09:00 - 18:00; Pazar,Kapalı.","category":"Reklam Ajansı","rating":"4,0"},{"name":"Ajans Feedback (Yazılım Şirketi)","address":"Utku, 8 Eylül Cd. No:3/3, 45010 Şehzadeler/Manisa","website":"ajansfeedback.com","tel":"0551 409 92 22","mapsUrl":"https://www.google.com.tr/maps/place/Ajans+Feedback+(Yaz%C4%B1l%C4%B1m+%C5%9Eirketi)/@38.613961,27.4111775,14z/data=!4m8!1m2!2m1!1sajans!3m4!1s0x14b99c6ba59b0b7f:0x7612e5f84211db3!8m2!3d38.613961!4d27.428687","openHours":"Pazartesi,10:30 - 19:00; Salı,10:30 - 19:00; Çarşamba,10:30 - 19:00; Perşembe,10:30 - 19:00; Cuma,10:30 - 19:00; Cumartesi,12:00 - 19:00; Pazar,Kapalı.","category":"Yazılım Şirketi","rating":"4,7"},{"name":"Çözüm Ajans","address":"1. Anafartalar, 1620. Sk (Arabacı Sk.) No:1, 45020 Manisa Merkez/Manisa","website":" ","tel":"(0236) 231 81 01","mapsUrl":"https://www.google.com.tr/maps/place/%C3%87%C3%B6z%C3%BCm+Ajans/@38.6190964,27.428921,14z/data=!4m8!1m2!2m1!1sajans!3m4!1s0x14b99c6d293af20b:0xb126ebb07d33a414!8m2!3d38.6167656!4d27.4317201","openHours":" ","category":"Reklam Ajansı","rating":"5,0"},{"name":"Elin Ajans","address":"1. Anafartalar, Konuk Cd. No:9, 45020 Manisa Merkez/Manisa","website":" ","tel":"(0236) 237 77 05","mapsUrl":"https://www.google.com.tr/maps/place/Elin+Ajans/@38.6190964,27.428921,14z/data=!4m8!1m2!2m1!1sajans!3m4!1s0x14b99c13628d68db:0xec0e38d97fdd034e!8m2!3d38.6143966!4d27.4336071","openHours":" ","category":"Reklam Ajansı","rating":" "},{"name":"Opus Reklam Ajansı","address":"Çarşı, 1817. Sk. No:34/A, 45010 Şehzadeler/Manisa","website":"opusajans.com","tel":"0531 246 61 31","mapsUrl":"https://www.google.com.tr/maps/place/Opus+Reklam+Ajans%C4%B1/@38.6125083,27.4150312,14z/data=!4m8!1m2!2m1!1sajans!3m4!1s0x14b99c14d6846a69:0xb0344c40b9262e38!8m2!3d38.6125083!4d27.4325407","openHours":"Pazartesi,09:00 - 19:00; Salı,09:00 - 19:00; Çarşamba,09:00 - 19:00; Perşembe,09:00 - 19:00; Cuma,09:00 - 19:00; Cumartesi,09:00 - 19:00; Pazar,Kapalı.","category":"Reklam Ajansı","rating":"5,0"},{"name":"Esoes Medya ve Reklam Ajansı","address":"Anafartalar Mh, Hükümet Cd. No:41/2, 45000 Şehzadeler/Manisa","website":" ","tel":"0531 613 01 80","mapsUrl":"https://www.google.com.tr/maps/place/Esoes+Medya+ve+Reklam+Ajans%C4%B1/@38.6190964,27.428921,14z/data=!4m8!1m2!2m1!1sajans!3m4!1s0x14b99c6b4e884445:0x4e288fbfbc3211d3!8m2!3d38.6134601!4d27.4334489","openHours":"Pazartesi,24 saat açık; Salı,24 saat açık; Çarşamba,24 saat açık; Perşembe,24 saat açık; Cuma,24 saat açık; Cumartesi,24 saat açık; Pazar,Kapalı.","category":"Reklam Ajansı","rating":"5,0"},{"name":"Can Reklam Ajansı","address":"İbrahimçelebi, Yeşiltepe Cd. No58/A, 45010 Şehzadeler/Manisa","website":"cantabela.com","tel":"0506 681 44 98","mapsUrl":"https://www.google.com.tr/maps/place/Can+Reklam+Ajans%C4%B1/@38.6190964,27.428921,14z/data=!4m8!1m2!2m1!1sajans!3m4!1s0x14b99c424b3875c1:0xb09f8262bf06f94a!8m2!3d38.6095768!4d27.4243382","openHours":"Pazartesi,08:30 - 20:30; Salı,08:30 - 20:30; Çarşamba,08:30 - 20:30; Perşembe,08:30 - 20:30; Cuma,08:30 - 20:30; Cumartesi,08:30 - 20:30; Pazar,11:00 - 18:00.","category":"Reklam Ajansı","rating":"5,0"},{"name":"Dünyajans","address":"1. Anafartalar, Ergen Cd. No:10, 45020 Şehzadeler/Manisa","website":"dunyajans.com","tel":"0542 337 42 62","mapsUrl":"https://www.google.com.tr/maps/place/D%C3%BCnyajans/@38.6190964,27.428921,14z/data=!4m8!1m2!2m1!1sajans!3m4!1s0x14b99c6b502a8971:0x2a1b95d63c1de915!8m2!3d38.6143999!4d27.431584","openHours":"Pazartesi,08:30 - 19:00; Salı,08:30 - 19:00; Çarşamba,08:30 - 19:00; Perşembe,08:30 - 19:00; Cuma,08:30 - 19:00; Cumartesi,08:30 - 19:00; Pazar,13:00 - 18:00.","category":"Reklam Ajansı","rating":"4,0"},{"name":"Akova Medya Ajans","address":"Utku, Çimentepe Cd. No:37, 45010 Manisa Merkez/Manisa","website":" ","tel":"0542 301 34 45","mapsUrl":"https://www.google.com.tr/maps/place/Akova+Medya+Ajans/@38.6190964,27.428921,14z/data=!4m8!1m2!2m1!1sajans!3m4!1s0x14b99c6b00d6f6cf:0xd8e3952b0463e4ae!8m2!3d38.6134105!4d27.4293791","openHours":" ","category":"Reklam Ajansı","rating":"4,0"},{"name":"Sosyal ajans","address":"Utku, 2102. Sk. no/9a, 45010 Şehzadeler/Manisa","website":" ","tel":"0535 851 71 86","mapsUrl":"https://www.google.com.tr/maps/place/Sosyal+ajans/@38.6190964,27.428921,14z/data=!4m8!1m2!2m1!1sajans!3m4!1s0x14b99d6742aad533:0x7577dbffebd17aa1!8m2!3d38.612362!4d27.428974","openHours":" ","category":"Reklam Ajansı","rating":" "},{"name":"Rota Ajans","address":"Tevfikiye, 8 Eylül Cd. No:144/4, 45010 Yunusemre/Manisa","website":"manisarotaajans.com","tel":"0506 675 04 21","mapsUrl":"https://www.google.com.tr/maps/place/Rota+Ajans/@38.6190964,27.428921,14z/data=!4m8!1m2!2m1!1sajans!3m4!1s0x14b99c6b06b533a5:0xe175942bfb8a62b4!8m2!3d38.613347!4d27.417696","openHours":"Pazartesi,09:00 - 19:00; Salı,09:00 - 19:00; Çarşamba,09:00 - 19:00; Perşembe,09:00 - 19:00; Cuma,09:00 - 19:00; Cumartesi,09:00 - 19:00; Pazar,Kapalı.","category":"Reklam Ajansı","rating":"1,0"},{"name":"Deniz Art Ajans","address":"Kuyualan, 3304. Sk. 14/1, 45020 Yunusemre/Manisa","website":"okulurunleri.com","tel":"0542 494 22 96","mapsUrl":"https://www.google.com.tr/maps/place/Deniz+Art+Ajans/@38.6190964,27.428921,14z/data=!4m8!1m2!2m1!1sajans!3m4!1s0x14b99c5d25555555:0x771845525a9ac245!8m2!3d38.611874!4d27.419494","openHours":"Pazartesi,08:30 - 19:00; Salı,08:30 - 19:00; Çarşamba,08:30 - 19:00; Perşembe,08:30 - 19:00; Cuma,08:30 - 19:00; Cumartesi,09:00 - 15:00; Pazar,Kapalı.","category":"Reklam Hizmetleri","rating":" "},{"name":"Mavi Ajans","address":"Ayni Ali, 3306. Sk., 45110 Manisa Merkez/Manisa","website":" ","tel":"(0236) 231 60 90","mapsUrl":"https://www.google.com.tr/maps/place/Mavi+Ajans/@38.6190964,27.428921,14z/data=!4m8!1m2!2m1!1sajans!3m4!1s0x14b99c67bef17de1:0x62c0e0c7ce1591c2!8m2!3d38.6148041!4d27.4186768","openHours":"Pazartesi,09:00 - 19:00; Salı,09:00 - 19:00; Çarşamba,09:00 - 19:00; Perşembe,09:00 - 19:00; Cuma,09:00 - 19:00; Cumartesi,09:00 - 19:00; Pazar,Kapalı.","category":"Reklam Ajansı","rating":"5,0"},{"name":"EZEN REKLAM AJANSI","address":"Akıncılar, b, 2702. Sk. No:9, 45010 Manisa Merkez/Manisa","website":"business.site","tel":"0554 410 29 35","mapsUrl":"https://www.google.com.tr/maps/place/EZEN+REKLAM+AJANSI/@38.6190964,27.428921,14z/data=!4m8!1m2!2m1!1sajans!3m4!1s0x14b99c69cd51b417:0xb5dfe0937aada627!8m2!3d38.612863!4d27.4233676","openHours":"Pazartesi,09:00 - 20:00; Salı,09:00 - 20:00; Çarşamba,09:00 - 20:00; Perşembe,09:00 - 20:00; Cuma,09:00 - 20:00; Cumartesi,09:00 - 20:00; Pazar,Kapalı.","category":"Reklam Ajansı","rating":"4,8"},{"name":"FARKAJANS","address":"Utku, Çarşı Blv. No:84, 45010 Manisa Merkez/Manisa","website":" ","tel":"(0236) 234 32 75","mapsUrl":"https://www.google.com.tr/maps/place/FARKAJANS/@38.6190964,27.428921,14z/data=!4m8!1m2!2m1!1sajans!3m4!1s0x14b99c6a724f0d73:0x53d87bf04e3c88c0!8m2!3d38.6112644!4d27.4279398","openHours":"Pazartesi,08:30 - 18:00; Salı,08:30 - 18:00; Çarşamba,08:30 - 18:00; Perşembe,08:30 - 18:00; Cuma,08:30 - 18:00; Cumartesi,08:30 - 18:00; Pazar,Kapalı.","category":"Reklam Ajansı","rating":"5,0"},{"name":"Manisa Web Tasarım, SEO Hizmeti, Sosyal Medya Danışmanlığı, E-Ticaret Çözümleri (ManiaAjans)","address":"Utku, Diş Hekimleri İşhanı, 1601. Sk. No:17 D:5, 45010 Şehzadeler/Manisa","website":" ","tel":"0850 346 3228","mapsUrl":"https://www.google.com.tr/maps/place/Manisa+Web+Tasar%C4%B1m,+SEO+Hizmeti,+Sosyal+Medya+Dan%C4%B1%C5%9Fmanl%C4%B1%C4%9F%C4%B1,+E-Ticaret+%C3%87%C3%B6z%C3%BCmleri+(ManiaAjans)/@38.6190964,27.428921,14z/data=!4m8!1m2!2m1!1sajans!3m4!1s0x14b98591cdb3654d:0x9e0125aa70184aa4!8m2!3d38.6136479!4d27.4307831","openHours":"Pazartesi,24 saat açık; Salı,24 saat açık; Çarşamba,24 saat açık; Perşembe,24 saat açık; Cuma,24 saat açık; Cumartesi,24 saat açık; Pazar,24 saat açık.","category":"Web Sitesi Tasarımcısı","rating":"5,0"},{"name":"MEK Ajans","address":"75. Yıl, 5391. Sk. No: 45 D:10, 45030 Yunusemre/Manisa","website":"mekajans.com","tel":"0532 651 40 31","mapsUrl":"https://www.google.com.tr/maps/place/MEK+Ajans/@38.6190964,27.428921,14z/data=!4m8!1m2!2m1!1sajans!3m4!1s0x14b99d9e928da1c5:0x2b5ebeb7304c5c94!8m2!3d38.6208605!4d27.3824415","openHours":"Pazartesi,09:00 - 18:00; Salı,09:00 - 18:00; Çarşamba,09:00 - 18:00; Perşembe,09:00 - 18:00; Cuma,09:00 - 18:00; Cumartesi,Kapalı; Pazar,Kapalı.","category":"Reklam Ajansı","rating":" "},{"name":"Atölye Reklam Ajansı","address":"Yarhasanlar, Kültür Sitesi, Belediye Cd. 51/B D:No 146, 45020 Şehzadeler","website":"atolyeajans.com","tel":"0850 532 5405","mapsUrl":"https://www.google.com.tr/maps/place/At%C3%B6lye+Reklam+Ajans%C4%B1/@38.6190964,27.428921,14z/data=!4m8!1m2!2m1!1sajans!3m4!1s0x14b99d17c2e6ea01:0x22dbdd9179fa21a0!8m2!3d38.6154409!4d27.42798","openHours":"Pazartesi,09:00 - 18:00; Salı,09:00 - 18:00; Çarşamba,09:00 - 18:00; Perşembe,09:00 - 18:00; Cuma,09:00 - 18:00; Cumartesi,Kapalı; Pazar,Kapalı.","category":"Reklam Ajansı","rating":" "},{"name":"FS TASARIM REKLAM AJANSI","address":"Yarhasanlar, 2306. Sk. No:27, 45200, 45020 Manisa Merkez/Manisa","website":"fstasarim.com.tr","tel":"(0236) 232 70 30","mapsUrl":"https://www.google.com.tr/maps/place/FS+TASARIM+REKLAM+AJANSI/@38.6190964,27.428921,14z/data=!4m8!1m2!2m1!1sajans!3m4!1s0x14b99c6eac1b12f7:0x7da2531268a51865!8m2!3d38.6167632!4d27.4260482","openHours":"Pazartesi,09:00 - 18:30; Salı,09:00 - 18:30; Çarşamba,09:00 - 18:30; Perşembe,09:00 - 18:30; Cuma,09:00 - 18:30; Cumartesi,09:00 - 15:00; Pazar,Kapalı.","category":"Reklam Ajansı","rating":"5,0"},{"name":"A.C. Aksan Otomotiv San.Tic.Ltd.Şti","address":"Aziziye, 1069. Sk. No:17, 81010 Merkez/Düzce","website":" ","tel":"(0380) 514 90 71","mapsUrl":"https://www.google.com/maps/place/A.C.+Aksan+Otomotiv+San.Tic.Ltd.%C5%9Eti/@40.8464485,31.1123407,14z/data=!4m8!1m2!2m1!1zbGFzdGlrw6dp!3m4!1s0x409d9fec6d4cabb7:0x8a2162b5d7ab140c!8m2!3d40.8464485!4d31.1298502","openHours":"Pazartesi,08:00 - 19:30; Salı,08:00 - 19:30; Çarşamba,08:00 - 19:30; Perşembe,08:00 - 19:30; Cuma,08:00 - 19:30; Cumartesi,08:00 - 19:30; Pazar,Kapalı.","category":"Oto Lastik Dükkanı","rating":"4,5"},{"name":"Reis OTO LASTIK ---LASTIKCI HUSEYINN","address":"Cumhuriyet, 81600 Düzce Merkez/Düzce","website":" ","tel":"0544 903 00 81","mapsUrl":"https://www.google.com/maps/place/Reis+OTO+LASTIK+---LASTIKCI+HUSEYINN/@40.8438464,31.15654,14z/data=!4m8!1m2!2m1!1zbGFzdGlrw6dp!3m4!1s0x409d75d7725d6eb9:0x8b3de66bd63c5603!8m2!3d40.825979!4d31.1946606","openHours":"Pazartesi,24 saat açık; Salı,24 saat açık; Çarşamba,24 saat açık; Perşembe,24 saat açık; Cuma,24 saat açık; Cumartesi,24 saat açık; Pazar,24 saat açık.","category":"Oto Lastik Dükkanı","rating":" "},{"name":"Çağla Lastik","address":"Merkez, akçakoca yolu üzeri beyciler sapağı 10181010 merkez/düzce, 00081 Düzce","website":"cagla-lastik.business.site","tel":"(0380) 526 07 58","mapsUrl":"https://www.google.com/maps/place/%C3%87a%C4%9Fla+Lastik/@40.8438464,31.15654,14z/data=!4m8!1m2!2m1!1zbGFzdGlrw6dp!3m4!1s0x409da00d2a4f4281:0xbd022947ef87c928!8m2!3d40.857216!4d31.1671113","openHours":"Pazartesi,07:30 - 19:30; Salı,07:30 - 19:30; Çarşamba,07:30 - 19:30; Perşembe,07:30 - 19:30; Cuma,07:30 - 19:30; Cumartesi,07:30 - 19:30; Pazar,10:00 - 19:30.","category":"Oto Lastik Dükkanı","rating":"4,7"},{"name":"Lastik Vs.","address":"Uzun Mustafa, D-100 Karayolu No:402, 81010 Düzce Merkez/Düzce","website":"lastikvs.com","tel":"(0380) 514 19 80","mapsUrl":"https://www.google.com/maps/place/Lastik+Vs./@40.8438464,31.15654,14z/data=!4m8!1m2!2m1!1zbGFzdGlrw6dp!3m4!1s0x409d9ffc012fc4b1:0xf2152c42f8675e6a!8m2!3d40.84783!4d31.1515491","openHours":"Pazartesi,08:00 - 19:30; Salı,08:00 - 19:30; Çarşamba,08:00 - 19:30; Perşembe,08:00 - 19:30; Cuma,08:00 - 19:30; Cumartesi,08:00 - 19:30; Pazar,Kapalı.","category":"Oto Lastik Dükkanı","rating":"3,0"},{"name":"Kervan Oto Lastik","address":"Cumhuriyet, D100 Yanyolu, 81600 Düzce Merkez/Düzce","website":" ","tel":"0544 438 80 80","mapsUrl":"https://www.google.com/maps/place/Kervan+Oto+Lastik/@40.8438464,31.15654,14z/data=!4m8!1m2!2m1!1zbGFzdGlrw6dp!3m4!1s0x409d757b56930807:0xaff2d8670f8fc06e!8m2!3d40.8338787!4d31.1787489","openHours":"Pazartesi,24 saat açık; Salı,24 saat açık; Çarşamba,24 saat açık; Perşembe,24 saat açık; Cuma,24 saat açık; Cumartesi,24 saat açık; Pazar,24 saat açık.","category":"Oto Lastik Dükkanı","rating":"4,7"},{"name":"İlhan Oto Lastik","address":"Fatih, D100, 81030 Düzce Merkez/Düzce","website":" ","tel":" ","mapsUrl":"https://www.google.com/maps/place/%C4%B0lhan+Oto+Lastik/@40.8438464,31.15654,14z/data=!4m8!1m2!2m1!1zbGFzdGlrw6dp!3m4!1s0x409d9ffa8204ad0d:0x5a3b645877e342d!8m2!3d40.848498!4d31.142305","openHours":"Pazartesi,08:00 - 19:30; Salı,08:00 - 19:30; Çarşamba,08:00 - 19:30; Perşembe,08:00 - 19:30; Cuma,08:00 - 19:30; Cumartesi,08:00 - 19:30; Pazar,Kapalı.","category":"Oto Lastik Dükkanı","rating":"3,9"},{"name":"Likos Oto Lastik Balans 7/24 yol yardim","address":"Fevzi Çakmak, A, Eski Bolu Cd. No:249, 81020 Düzce Merkez/Düzce","website":"business.site","tel":"0545 303 29 91","mapsUrl":"https://www.google.com/maps/place/Likos+Oto+Lastik+Balans+7%2F24+yol+yardim/@40.8438464,31.15654,14z/data=!4m8!1m2!2m1!1zbGFzdGlrw6dp!3m4!1s0x409d74df43b7c251:0x238a3e09662e1c05!8m2!3d40.8253209!4d31.1942419","openHours":"Pazartesi,24 saat açık; Salı,24 saat açık; Çarşamba,24 saat açık; Perşembe,24 saat açık; Cuma,24 saat açık; Cumartesi,24 saat açık; Pazar,24 saat açık.","category":"Oto Lastik Dükkanı","rating":"3,4"},{"name":"Emre Jant Lastik","address":"Kültür, Kuyumcuzade Blv., 81600 Düzce Merkez/Düzce","website":" ","tel":"0555 581 61 62","mapsUrl":"https://www.google.com/maps/place/Emre+Jant+Lastik/@40.8438464,31.15654,14z/data=!4m8!1m2!2m1!1zbGFzdGlrw6dp!3m4!1s0x409d9ffdb3071ff3:0x98d15a6c84610070!8m2!3d40.846649!4d31.152029","openHours":"Pazartesi,08:30 - 19:00; Salı,08:30 - 19:00; Çarşamba,08:30 - 19:00; Perşembe,08:30 - 19:00; Cuma,08:30 - 19:00; Cumartesi,08:30 - 19:00; Pazar,10:00 - 17:00.","category":"Oto Lastik Dükkanı","rating":"4,0"},{"name":"Lassa - Tevekkel Oto Sanayi","address":"Eski Sanayi Çarşısı 791. Sok. D:2, Düzce Merkez, Düzce","website":"lassa.com.tr","tel":"(0380) 524 02 00","mapsUrl":"https://www.google.com/maps/place/Lassa+-+Tevekkel+Oto+Sanayi/@40.8438464,31.15654,14z/data=!4m8!1m2!2m1!1zbGFzdGlrw6dp!3m4!1s0x409d9ffdd134fe57:0xef2722be24fd1742!8m2!3d40.8475684!4d31.1534241","openHours":"Pazartesi,08:00 - 19:00; Salı,08:00 - 19:00; Çarşamba,08:00 - 19:00; Perşembe,08:00 - 19:00; Cuma,08:00 - 19:00; Cumartesi,08:00 - 19:00; Pazar,Kapalı.","category":"Oto Lastik Dükkanı","rating":"5,0"},{"name":"Gulbahar Oto Lastik","address":"Aziziye, D 100 karayolu kenarı No 541, 81100 Düzce Merkez/Düzce","website":"business.site","tel":"0539 505 23 06","mapsUrl":"https://www.google.com/maps/place/Gulbahar+Oto+Lastik/@40.8438464,31.15654,14z/data=!4m8!1m2!2m1!1zbGFzdGlrw6dp!3m4!1s0x409d9fecfd9cf187:0x23f44eb0a4847fd8!8m2!3d40.8480178!4d31.1337086","openHours":"Pazartesi,09:00 - 19:00; Salı,09:00 - 19:00; Çarşamba,09:00 - 19:00; Perşembe,09:00 - 19:00; Cuma,09:00 - 19:00; Cumartesi,09:00 - 19:00; Pazar,Kapalı.","category":"Oto Lastik Dükkanı","rating":"4,9"},{"name":"YILDIRIMLAR OTO LASTİK","address":"yıldırımlar lastik kaplama, aziziye mah olimpiyat mevkii no 513, 81100 Düzce","website":"yildirimlargroup.com","tel":"(0380) 524 82 81","mapsUrl":"https://www.google.com/maps/place/YILDIRIMLAR+OTO+LAST%C4%B0K/@40.8438464,31.15654,14z/data=!4m8!1m2!2m1!1zbGFzdGlrw6dp!3m4!1s0x14caa6faf8b934a3:0xec3c8a184f4d0cd3!8m2!3d40.8478855!4d31.1376832","openHours":"Pazartesi,08:00 - 18:00; Salı,08:00 - 18:00; Çarşamba,08:00 - 18:00; Perşembe,08:00 - 18:00; Cuma,08:00 - 18:00; Cumartesi,08:00 - 18:00; Pazar,Kapalı.","category":"Oto Lastik Dükkanı","rating":"4,6"},{"name":"KUŞÇUOĞLU LASTİK-PETLAS BÖLGE BAYİİ","address":"Kültür, Kuyumcuzade Blv. No:17, 81600 Düzce Merkez/Düzce","website":"business.site","tel":"(0380) 523 40 57","mapsUrl":"https://www.google.com/maps/place/KU%C5%9E%C3%87UO%C4%9ELU+LAST%C4%B0K-PETLAS+B%C3%96LGE+BAY%C4%B0%C4%B0/@40.8438464,31.15654,14z/data=!4m8!1m2!2m1!1zbGFzdGlrw6dp!3m4!1s0x409d9ffd128628ab:0x715ca6c9fa89c1a4!8m2!3d40.8459322!4d31.1520473","openHours":"Pazartesi,08:00 - 19:30; Salı,08:00 - 19:30; Çarşamba,08:00 - 19:30; Perşembe,08:00 - 19:30; Cuma,08:00 - 19:30; Cumartesi,08:00 - 19:30; Pazar,12:00 - 18:00.","category":"Oto Lastik Mağazası","rating":"5,0"},{"name":"Lastik Park Pak-Kurt Otomotiv 2","address":"Koçyazı, 81100 Düzce Merkez/Düzce","website":" ","tel":"0532 291 98 72","mapsUrl":"https://www.google.com/maps/place/Lastik+Park+Pak-Kurt+Otomotiv+2/@40.8438464,31.15654,14z/data=!4m8!1m2!2m1!1zbGFzdGlrw6dp!3m4!1s0x409d75cc53d05259:0xf18a3bd0824e42d9!8m2!3d40.8405719!4d31.1808455","openHours":"Pazartesi,08:30 - 18:30; Salı,08:30 - 18:30; Çarşamba,08:30 - 18:30; Perşembe,08:30 - 18:30; Cuma,08:30 - 18:30; Cumartesi,08:30 - 18:30; Pazar,10:30 - 17:00.","category":"Oto Lastik Dükkanı","rating":"4,0"},{"name":"Lastik Park","address":"Uzun Mustafa, D100 Yanyolu, 81010 Düzce Merkez/Düzce","website":" ","tel":" ","mapsUrl":"https://www.google.com/maps/place/Lastik+Park/@40.8438464,31.15654,14z/data=!4m8!1m2!2m1!1zbGFzdGlrw6dp!3m4!1s0x409d9ffbecd2871f:0xea4b5e768a017d96!8m2!3d40.848153!4d31.148408","openHours":"Pazartesi,08:30 - 19:30; Salı,08:30 - 19:30; Çarşamba,08:30 - 19:30; Perşembe,08:30 - 19:30; Cuma,08:30 - 19:30; Cumartesi,08:30 - 19:30; Pazar,Kapalı.","category":"Oto Lastik Dükkanı","rating":"3,8"},{"name":"By Lastik & Jant","address":"Aziziye Mah. D-100 Karayolu Kenarı No:589 Merkez Mahallesi, 81100 Düzce","website":"bylastik.com.tr","tel":"(0380) 523 75 76","mapsUrl":"https://www.google.com/maps/place/By+Lastik+%26+Jant/@40.8438464,31.15654,14z/data=!4m8!1m2!2m1!1zbGFzdGlrw6dp!3m4!1s0x409d7545303a50c3:0x392479d8d7ddd897!8m2!3d40.847997!4d31.1293656","openHours":" ","category":"Oto Lastik Dükkanı","rating":"4,6"},{"name":"Pak-Kurt Otomotiv","address":"Aziziye, Kültür Mah. No: 90/D Opet Karşısı, 1030. Sk., 81030 Merkez/Düzce Merkez/Düzce","website":" ","tel":"(0380) 514 18 41","mapsUrl":"https://www.google.com/maps/place/Pak-Kurt+Otomotiv/@40.8438464,31.15654,14z/data=!4m8!1m2!2m1!1zbGFzdGlrw6dp!3m4!1s0x409d75535f2305c7:0xf09144f01e92f806!8m2!3d40.845636!4d31.152446","openHours":"Pazartesi,08:00 - 19:00; Salı,08:00 - 19:00; Çarşamba,08:00 - 19:00; Perşembe,08:00 - 19:00; Cuma,08:00 - 19:00; Cumartesi,08:00 - 19:00; Pazar,Kapalı.","category":"Oto Lastik Dükkanı","rating":"3,8"},{"name":"Mutlu Kardeşler","address":"Akınlar, 2590 Sk., 81100 Düzce Merkez/Düzce","website":" ","tel":"0541 513 16 45","mapsUrl":"https://www.google.com/maps/place/Mutlu+Karde%C5%9Fler/@40.8438464,31.15654,14z/data=!4m8!1m2!2m1!1zbGFzdGlrw6dp!3m4!1s0x409d9f8d2bff6b63:0x10eac8f21575b19f!8m2!3d40.8525488!4d31.1225077","openHours":" ","category":"Oto Lastik Dükkanı","rating":"5,0"},{"name":"Lassa-tekevvel","address":"Kültür, 81600 Düzce Merkez/Düzce","website":"lassa.com.tr","tel":" ","mapsUrl":"https://www.google.com/maps/place/Lassa-tekevvel/@40.8438464,31.15654,14z/data=!4m8!1m2!2m1!1zbGFzdGlrw6dp!3m4!1s0x409d9ffdd486e42b:0x46c255322e72679a!8m2!3d40.847607!4d31.1531962","openHours":" ","category":"Oto Tamirhanesi","rating":"4,7"},{"name":"Continental","address":"Sancaklar, Plantfarma Bitkisel İlaç Sanayi A.Ş. No:343, 81100 Düzce Merkez/Düzce","website":"continental-lastikleri.com.tr","tel":" ","mapsUrl":"https://www.google.com/maps/place/Continental/@40.8438464,31.15654,14z/data=!4m8!1m2!2m1!1zbGFzdGlrw6dp!3m4!1s0x409da06c3a5b7ffb:0xedef6a6ce431f75a!8m2!3d40.8714122!4d31.1651622","openHours":"Pazartesi,08:00 - 19:00; Salı,08:00 - 19:00; Çarşamba,08:00 - 19:00; Perşembe,08:00 - 19:00; Cuma,08:00 - 19:00; Cumartesi,08:00 - 19:00; Pazar,12:00 - 16:00.","category":"Oto Lastik Dükkanı","rating":"5,0"},{"name":"Yaşar Usta Oto Lastik","address":"Kültür, Kuyumcuzade Blv., 81600 Düzce Merkez/Düzce","website":" ","tel":" ","mapsUrl":"https://www.google.com/maps/place/Ya%C5%9Far+Usta+Oto+Lastik/@40.8438464,31.15654,14z/data=!4m8!1m2!2m1!1zbGFzdGlrw6dp!3m4!1s0x409d9ffc317aa4a5:0x8ee16c5cbe191e39!8m2!3d40.8472984!4d31.1521797","openHours":"Pazartesi,08:00 - 19:30; Salı,08:00 - 19:30; Çarşamba,08:00 - 19:30; Perşembe,08:00 - 19:30; Cuma,08:00 - 19:30; Cumartesi,08:00 - 19:30; Pazar,Kapalı.","category":"Oto Lastik Dükkanı","rating":"5,0"},{"name":"A.C. Aksan Otomotiv San.Tic.Ltd.Şti","address":"Aziziye, 1069. Sk. No:17, 81010 Merkez/Düzce","website":" ","tel":"(0380) 514 90 71","mapsUrl":"https://www.google.com/maps/place/A.C.+Aksan+Otomotiv+San.Tic.Ltd.%C5%9Eti/@40.8438464,31.15654,14z/data=!4m9!1m3!2m2!1zbGFzdGlrw6dp!6e6!3m4!1s0x409d9fec6d4cabb7:0x8a2162b5d7ab140c!8m2!3d40.8464485!4d31.1298502","openHours":"Pazartesi,08:00 - 19:30; Salı,08:00 - 19:30; Çarşamba,08:00 - 19:30; Perşembe,08:00 - 19:30; Cuma,08:00 - 19:30; Cumartesi,08:00 - 19:30; Pazar,Kapalı.","category":"Oto Lastik Dükkanı","rating":"4,5"},{"name":"HAYRET OTO LASTİK VE ROT BALANS","address":"Kirazlı Köyü D100 YOLU ÜZERİ TP PETROL KARŞISI MERKEZ 2. ŞUBE Küçük Sanayi Sitesi H2 BLOCK NO:221 MERKEZ, 81100 Düzce","website":"mustafasarial11.wix.com","tel":"0536 276 43 27","mapsUrl":"https://www.google.com/maps/place/HAYRET+OTO+LAST%C4%B0K+VE+ROT+BALANS/@40.8438464,31.15654,14z/data=!4m9!1m3!2m2!1zbGFzdGlrw6dp!6e6!3m4!1s0x409d7495dd44a4c1:0x29ead67ae937422e!8m2!3d40.8131836!4d31.21791","openHours":"Pazartesi,09:00 - 18:00; Salı,09:00 - 18:00; Çarşamba,09:00 - 18:00; Perşembe,09:00 - 18:00; Cuma,08:00 - 20:00; Cumartesi,08:00 - 20:00; Pazar,Kapalı.","category":"Araç Bakım ve Onarımı","rating":"5,0"},{"name":"Petlas","address":"Karaca, Düzce - Akçakoca Yolu Yanyolu No:70, 81030 Düzce Merkez/Düzce","website":" ","tel":"(0380) 523 02 55","mapsUrl":"https://www.google.com/maps/place/Petlas/@40.8438464,31.15654,14z/data=!4m9!1m3!2m2!1zbGFzdGlrw6dp!6e6!3m4!1s0x409d0aabb2857837:0xd2f165bc179bc5ef!8m2!3d40.851634!4d31.1659661","openHours":" ","category":"Oto Lastik Dükkanı","rating":"5,0"},{"name":"Michelin - Aktaş Oto Euromaster","address":"Fatih Mah, D100 Üzeri D:No:504, 81030 Merkez/Düzce","website":"michelin.com.tr","tel":"(0380) 523 19 15","mapsUrl":"https://www.google.com/maps/place/Michelin+-+Akta%C5%9F+Oto+Euromaster/@40.8438464,31.15654,14z/data=!4m9!1m3!2m2!1zbGFzdGlrw6dp!6e6!3m4!1s0x14cac5b5438e75b3:0x382ed7f938f9dd27!8m2!3d40.8485989!4d31.1357396","openHours":"Pazartesi,08:30 - 18:00; Salı,08:30 - 18:00; Çarşamba,08:30 - 18:00; Perşembe,08:30 - 18:00; Cuma,08:30 - 18:00; Cumartesi,08:30 - 17:00; Pazar,10:00 - 16:00.","category":"Oto Lastik Dükkanı","rating":"5,0"},{"name":"Goodyear","address":"Merkez, Rasim Betir Paşa Bulv., 33. Sok. No:65, 81600 Düzce Merkez/Düzce","website":"goodyear.eu","tel":"(0380) 523 25 26","mapsUrl":"https://www.google.com/maps/place/Goodyear/@40.8438464,31.15654,14z/data=!4m9!1m3!2m2!1zbGFzdGlrw6dp!6e6!3m4!1s0x409d7554a95addf1:0xfb8fe20439db0752!8m2!3d40.8451075!4d31.1556951","openHours":" ","category":"Oto Lastik Dükkanı","rating":"4,6"},{"name":"Goodyear-önayar","address":"Fevzi Çakmak Mh., D100 Yanyolu, 81020 Düzce Merkez/Düzce","website":" ","tel":" ","mapsUrl":"https://www.google.com/maps/place/Goodyear-%C3%B6nayar/@40.8438464,31.15654,14z/data=!4m9!1m3!2m2!1zbGFzdGlrw6dp!6e6!3m4!1s0x409d753b382cab23:0x4bcfda6ce56ddba6!8m2!3d40.8309781!4d31.1828671","openHours":"Pazartesi,08:30 - 19:00; Salı,08:30 - 19:00; Çarşamba,08:30 - 19:00; Perşembe,08:30 - 19:00; Cuma,08:30 - 19:00; Cumartesi,08:30 - 19:00; Pazar,Kapalı.","category":"Oto Lastik Dükkanı","rating":"3,5"},{"name":"TEVEKKEL OTO LASSA BAYİİ","address":"Kültür, 792. Sk. No:2, 81600 Düzce Merkez/Düzce","website":"tevekkel.com","tel":"(0380) 524 02 00","mapsUrl":"https://www.google.com/maps/place/TEVEKKEL+OTO+LASSA+BAY%C4%B0%C4%B0/@40.8438464,31.15654,14z/data=!4m9!1m3!2m2!1zbGFzdGlrw6dp!6e6!3m4!1s0x409d9ffc2ceb57e9:0x486c68cf5facf57a!8m2!3d40.8476185!4d31.1528288","openHours":"Pazartesi,08:00 - 18:30; Salı,08:00 - 18:30; Çarşamba,08:00 - 18:30; Perşembe,08:00 - 18:30; Cuma,08:00 - 18:30; Cumartesi,08:00 - 18:30; Pazar,Kapalı.","category":"Oto Lastik Mağazası","rating":"4,7"},{"name":"Kadir Usta Rot Balans & Oto Bakım Servisi","address":"CUMHURİYET MAHALLESİ KERVAN MEVKİİ D/100 KARAYOLU YANI NO:186, 81100 MERKEZ/Düzce","website":"kadirusta.com.tr","tel":"(0380) 523 44 34","mapsUrl":"https://www.google.com/maps/place/Kadir+Usta+Rot+Balans+%26+Oto+Bak%C4%B1m+Servisi/@40.8438464,31.15654,14z/data=!4m9!1m3!2m2!1zbGFzdGlrw6dp!6e6!3m4!1s0x409d7539bd78c0ad:0x2eba8c3fb5734585!8m2!3d40.834229!4d31.177929","openHours":"Pazartesi,08:30 - 18:00; Salı,08:30 - 18:00; Çarşamba,08:30 - 18:00; Perşembe,08:30 - 18:00; Cuma,08:30 - 18:00; Cumartesi,08:30 - 18:00; Pazar,Kapalı.","category":"Oto Lastik Mağazası","rating":"4,6"},{"name":"Nursel AGC","address":"Merkez, Kültür Mah. 1 Sok. No: 343 Eski Sanayi Sitesi, 81060 Düzce","website":" ","tel":"(0380) 514 38 39","mapsUrl":"https://www.google.com/maps/place/Nursel+AGC/@40.8438464,31.15654,14z/data=!4m9!1m3!2m2!1zbGFzdGlrw6dp!6e6!3m4!1s0x409d9ffdd8fc6adb:0x570cd6e54b41d08f!8m2!3d40.847424!4d31.154184","openHours":"Pazartesi,08:00 - 19:00; Salı,08:00 - 19:00; Çarşamba,08:00 - 19:00; Perşembe,08:00 - 19:00; Cuma,08:00 - 19:00; Cumartesi,08:00 - 19:00; Pazar,Kapalı.","category":"Oto Lastik Dükkanı","rating":"3,3"},{"name":"Kurt Oto Lastik Ve Balans Servisi","address":"Gölyaka Sapağı/Düzce Merkez/Düzce, 81100 Gölyaka Sapağı/Düzce","website":" ","tel":"0546 877 67 36","mapsUrl":"https://www.google.com/maps/place/Kurt+Oto+Lastik+Ve+Balans+Servisi/@40.8490815,31.0433367,14z/data=!4m9!1m3!2m2!1zbGFzdGlrw6dp!6e6!3m4!1s0x409d9fb626294abb:0xce519d6658768a75!8m2!3d40.8490815!4d31.0608462","openHours":"Pazartesi,24 saat açık; Salı,24 saat açık; Çarşamba,24 saat açık; Perşembe,24 saat açık; Cuma,24 saat açık; Cumartesi,24 saat açık; Pazar,24 saat açık.","category":"Oto Lastik Dükkanı","rating":"4,0"},{"name":"Tevekkel Oto","address":"Sanayi Çarşısı, Akar Stadyum Sk. No:89, 81600 Düzce Merkez/Düzce","website":"tevekkel.com","tel":"(0380) 524 60 14","mapsUrl":"https://www.google.com/maps/place/Tevekkel+Oto/@40.8438464,31.15654,14z/data=!4m9!1m3!2m2!1zbGFzdGlrw6dp!6e6!3m4!1s0x409d755b02c6ef3d:0x2a2e70ff5f1b4bae!8m2!3d40.8472636!4d31.1544015","openHours":"Pazartesi,08:30 - 19:00; Salı,08:30 - 19:00; Çarşamba,08:30 - 19:00; Perşembe,08:30 - 19:00; Cuma,08:30 - 19:00; Cumartesi,08:30 - 19:00; Pazar,Kapalı.","category":"Oto Lastik Dükkanı","rating":"4,3"},{"name":"Bridgestone-can Tevekkel","address":"Aziziye, 1050 Sk., 81010 Düzce Merkez/Düzce","website":"bridgestone.com.tr","tel":" ","mapsUrl":"https://www.google.com/maps/place/Bridgestone-can+Tevekkel/@40.8438464,31.15654,14z/data=!4m9!1m3!2m2!1zbGFzdGlrw6dp!6e6!3m4!1s0x409d9fecc372d1bb:0x1f44d468364cd3ca!8m2!3d40.8479249!4d31.127395","openHours":"Pazartesi,08:00 - 19:00; Salı,08:00 - 19:00; Çarşamba,08:00 - 19:00; Perşembe,08:00 - 19:00; Cuma,08:00 - 19:00; Cumartesi,08:00 - 19:00; Pazar,Kapalı.","category":"Oto Lastik Dükkanı","rating":"4,8"},{"name":"A.C. Aksan Otomotiv San.Tic.Ltd.Şti","address":"Aziziye, 1069. Sk. No:17, 81010 Merkez/Düzce","website":" ","tel":"(0380) 514 90 71","mapsUrl":"https://www.google.com/maps/place/A.C.+Aksan+Otomotiv+San.Tic.Ltd.%C5%9Eti/@40.8438464,31.15654,14z/data=!4m9!1m3!2m2!1zbGFzdGlrw6dp!6e6!3m4!1s0x409d9fec6d4cabb7:0x8a2162b5d7ab140c!8m2!3d40.8464485!4d31.1298502","openHours":"Pazartesi,08:00 - 19:30; Salı,08:00 - 19:30; Çarşamba,08:00 - 19:30; Perşembe,08:00 - 19:30; Cuma,08:00 - 19:30; Cumartesi,08:00 - 19:30; Pazar,Kapalı.","category":"Oto Lastik Dükkanı","rating":"4,5"},{"name":"Oto Lastik","address":"Karaçalı, Düzce Cd., 81900 Kaynaşlı/Düzce","website":" ","tel":" ","mapsUrl":"https://www.google.com/maps/place/Oto+Lastik/@40.7775497,31.2807897,14z/data=!4m9!1m3!2m2!1zbGFzdGlrw6dp!6e6!3m4!1s0x409d728c78971027:0x1cbb3e266ad455c5!8m2!3d40.7775497!4d31.2982992","openHours":" ","category":"Oto Lastik Dükkanı","rating":" "},{"name":"Goodyear Uğur Petrol Ürünleri","address":"Şerefiye Mah. Rasim Betir Paşa Bulvarı 33.Sok., No: 65, 81010 Merkez/Düzce","website":" ","tel":"(0380) 523 25 26","mapsUrl":"https://www.google.com/maps/place/Goodyear+U%C4%9Fur+Petrol+%C3%9Cr%C3%BCnleri/@40.8438464,31.15654,14z/data=!4m9!1m3!2m2!1zbGFzdGlrw6dp!6e6!3m4!1s0x409d9fd7da43fd7b:0xb7bec51e1f94961b!8m2!3d40.828919!4d31.133433","openHours":"Pazartesi,08:00 - 18:00; Salı,08:00 - 18:00; Çarşamba,08:00 - 18:00; Perşembe,08:00 - 18:00; Cuma,08:00 - 18:00; Cumartesi,08:00 - 18:00; Pazar,Kapalı.","category":"Oto Lastik Mağazası","rating":"1,0"},{"name":"FATİH OTO LASTİK","address":"Aziziye, İstanbul Cd. No:147, 81010 Düzce Merkez/Düzce","website":" ","tel":" ","mapsUrl":"https://www.google.com/maps/place/FAT%C4%B0H+OTO+LAST%C4%B0K/@40.8438464,31.15654,14z/data=!4m9!1m3!2m2!1zbGFzdGlrw6dp!6e6!3m4!1s0x409d9fe72bedf50f:0xc118db26cd014cec!8m2!3d40.8401125!4d31.1394837","openHours":"Pazartesi,08:00 - 19:00; Salı,08:00 - 19:00; Çarşamba,08:00 - 19:00; Perşembe,08:00 - 19:00; Cuma,08:00 - 19:00; Cumartesi,08:00 - 19:00; Pazar,Kapalı.","category":"Oto Lastik Mağazası","rating":"5,0"},{"name":"Oto Aran","address":"Kültür, Akar Stadyum Sk. No:25, 81600 Düzce Merkez/Düzce","website":"bridgestone.com.tr","tel":"(0380) 514 11 20","mapsUrl":"https://www.google.com/maps/place/Oto+Aran/@40.8438464,31.15654,14z/data=!4m9!1m3!2m2!1zbGFzdGlrw6dp!6e6!3m4!1s0x409d7557d13f8353:0x81cf63e083734c5c!8m2!3d40.8448971!4d31.1541887","openHours":" ","category":"Oto Tamirhanesi","rating":"1,0"},{"name":"NURSEL","address":"Kültür, 790. Sk. No:1, 81600 Düzce Merkez/Düzce","website":" ","tel":"(0380) 514 38 39","mapsUrl":"https://www.google.com/maps/place/NURSEL/@40.8438464,31.15654,14z/data=!4m9!1m3!2m2!1zbGFzdGlrw6dp!6e6!3m4!1s0x409d9ffdd8d7cfcb:0xd626abded64ebfed!8m2!3d40.8474349!4d31.1541856","openHours":"Pazartesi,08:00 - 19:00; Salı,08:00 - 19:00; Çarşamba,08:00 - 19:00; Perşembe,08:00 - 19:00; Cuma,08:00 - 19:00; Cumartesi,08:00 - 19:00; Pazar,Kapalı.","category":"Oto Lastik Dükkanı","rating":" "},{"name":"Ceylan Oto","address":"Topçular, Adapazarı Bolu Yolu, 81750 Çilimli/Düzce","website":" ","tel":" ","mapsUrl":"https://www.google.com/maps/place/Ceylan+Oto/@40.849829,31.0339495,14z/data=!4m9!1m3!2m2!1zbGFzdGlrw6dp!6e6!3m4!1s0x409d9f2672aea3d1:0x8be5fb6ccfd5fe71!8m2!3d40.849829!4d31.051459","openHours":" ","category":"Araç Bakım ve Onarımı","rating":"3,9"},{"name":"Aktaş Oto - Euromaster","address":"Fatih Mah. D-100 Karayolu İstanbul İstikameti Yan Yol No: 504 Merkez Mahallesi, 81030 Merkez/Düzce","website":"euroduzce.com","tel":"(0380) 512 19 15","mapsUrl":"https://www.google.com/maps/place/Akta%C5%9F+Oto+-+Euromaster/@40.8438464,31.15654,14z/data=!4m9!1m3!2m2!1zbGFzdGlrw6dp!6e6!3m4!1s0x409d9ffa88bf28a3:0x88b4a942933c8943!8m2!3d40.8486116!4d31.1357451","openHours":"Pazartesi,08:30 - 18:00; Salı,08:30 - 18:00; Çarşamba,08:30 - 18:00; Perşembe,08:30 - 18:00; Cuma,08:30 - 18:00; Cumartesi,09:00 - 15:00; Pazar,Kapalı.","category":"Oto Tamirhanesi","rating":"4,0"},{"name":"A.C. Aksan Otomotiv San.Tic.Ltd.Şti","address":"Aziziye, 1069. Sk. No:17, 81010 Merkez/Düzce","website":" ","tel":"(0380) 514 90 71","mapsUrl":"https://www.google.com/maps/place/A.C.+Aksan+Otomotiv+San.Tic.Ltd.%C5%9Eti/@40.8438265,31.1040097,12z/data=!4m9!1m3!2m2!1zbGFzdGlrw6dp!6e6!3m4!1s0x409d9fec6d4cabb7:0x8a2162b5d7ab140c!8m2!3d40.8464485!4d31.1298502","openHours":"Pazartesi,08:00 - 19:30; Salı,08:00 - 19:30; Çarşamba,08:00 - 19:30; Perşembe,08:00 - 19:30; Cuma,08:00 - 19:30; Cumartesi,08:00 - 19:30; Pazar,Kapalı.","category":"Oto Lastik Dükkanı","rating":"4,5"},{"name":"Mehmet Kotan","address":"Uzun Mustafa, D100 Yanyolu No:447, 81010 Düzce Merkez/Düzce","website":" ","tel":" ","mapsUrl":"https://www.google.com/maps/place/Mehmet+Kotan/@40.8438265,31.1040097,12z/data=!4m9!1m3!2m2!1zbGFzdGlrw6dp!6e6!3m4!1s0x409d9ffb92c2cef9:0x1f3d4b6a4fe6fefc!8m2!3d40.8480711!4d31.1484311","openHours":" ","category":" ","rating":"5,0"},{"name":"LastikPark","address":"Çamköy, 81100 Düzce Merkez/Düzce","website":"lastikpark.com","tel":" ","mapsUrl":"https://www.google.com/maps/place/LastikPark/@40.8438265,31.1040097,12z/data=!4m9!1m3!2m2!1zbGFzdGlrw6dp!6e6!3m4!1s0x409da065f116a929:0xd8e3e9610b17f635!8m2!3d40.8759685!4d31.1692519","openHours":"Pazartesi,08:30 - 19:00; Salı,08:30 - 19:00; Çarşamba,08:30 - 19:00; Perşembe,08:30 - 19:00; Cuma,08:30 - 19:00; Cumartesi,08:30 - 19:00; Pazar,Kapalı.","category":"Oto Lastik Dükkanı","rating":"4,4"},{"name":"Hendek Oto Lastikçi Yol Yardım","address":"Yeni Mah. Abdurrahman Gürses Cad. Hensa Sarılar Petrol Yanı, 54300 Hendek/Sakarya","website":"otoozel.com","tel":"0535 458 85 82","mapsUrl":"https://www.google.com/maps/place/Hendek+Oto+Lastik%C3%A7i+Yol+Yard%C4%B1m/@40.7724058,30.6667583,12z/data=!4m9!1m3!2m2!1zbGFzdGlrw6dp!6e6!3m4!1s0x409d8f5943c9b247:0xfe9a90dff084b8fc!8m2!3d40.7724058!4d30.7367961","openHours":"Pazartesi,24 saat açık; Salı,24 saat açık; Çarşamba,24 saat açık; Perşembe,24 saat açık; Cuma,24 saat açık; Cumartesi,24 saat açık; Pazar,24 saat açık.","category":"Oto Lastik Mağazası","rating":"3,3"},{"name":"Lastikci Soner ÇATAK","address":"Nuriye, Nal Cami, Nuriye/, Merkez Sk., 54300 Hendek/Sakarya","website":" ","tel":"0535 840 11 42","mapsUrl":"https://www.google.com/maps/place/Lastikci+Soner+%C3%87ATAK/@40.80782,30.6921382,12z/data=!4m9!1m3!2m2!1zbGFzdGlrw6dp!6e6!3m4!1s0x409d8e163be14d93:0xf9f9f5029745ee1d!8m2!3d40.80782!4d30.762176","openHours":"Pazartesi,24 saat açık; Salı,24 saat açık; Çarşamba,24 saat açık; Perşembe,24 saat açık; Cuma,24 saat açık; Cumartesi,24 saat açık; Pazar,24 saat açık.","category":"Oto Lastik Dükkanı","rating":"3,5"},{"name":"BOLU LASTİKÇİ","address":"Gölyüzü, Bahar Sk. No:19, 14200 Bolu Merkez/Bolu","website":"bolulastikci.com","tel":"0545 490 00 20","mapsUrl":"https://www.google.com/maps/place/BOLU+LAST%C4%B0K%C3%87%C4%B0/@40.7369799,31.5430468,12z/data=!4m9!1m3!2m2!1zbGFzdGlrw6dp!6e6!3m4!1s0x409d3fbc658c3887:0xc3cc378cb529c290!8m2!3d40.7369799!4d31.6130846","openHours":" ","category":"Oto Lastik Dükkanı","rating":"5,0"},{"name":"Oto Lastikci","address":"Köroğlu, Gerede Cd., 14200 Bolu Merkez/Bolu","website":" ","tel":" ","mapsUrl":"https://www.google.com/maps/place/Oto+Lastikci/@40.7336997,31.5477559,12z/data=!4m9!1m3!2m2!1zbGFzdGlrw6dp!6e6!3m4!1s0x409d3f3e244f1829:0x69055f2991a50d2e!8m2!3d40.7336997!4d31.6177937","openHours":" ","category":"Oto Lastik Dükkanı","rating":" "},{"name":"HARUN OTOMOTİV","address":"Sancaklar, Düzce Akçakoca Yolu No:93, 81100 Düzce Merkez/Düzce","website":" ","tel":"0533 630 82 81","mapsUrl":"https://www.google.com/maps/place/HARUN+OTOMOT%C4%B0V/@40.8438265,31.1040097,12z/data=!4m9!1m3!2m2!1zbGFzdGlrw6dp!6e6!3m4!1s0x409da00794e438a7:0x5372175e5bd02923!8m2!3d40.8566406!4d31.1662646","openHours":"Pazartesi,09:00 - 19:30; Salı,09:00 - 19:30; Çarşamba,09:00 - 19:30; Perşembe,09:00 - 19:30; Cuma,09:00 - 19:30; Cumartesi,09:00 - 19:30; Pazar,09:00 - 19:30.","category":"Oto Kaporta Dükkanı","rating":"4,5"},{"name":"Oto Lastikci","address":"Köroğlu, Ankara Bolu Yolu, 14200 Bolu Merkez/Bolu","website":" ","tel":" ","mapsUrl":"https://www.google.com/maps/place/Oto+Lastikci/@40.73648,31.5520692,12z/data=!4m9!1m3!2m2!1zbGFzdGlrw6dp!6e6!3m4!1s0x409d3f3d9e4a7cb5:0xab21d263ccc53e4d!8m2!3d40.73648!4d31.622107","openHours":" ","category":"Oto Lastik Dükkanı","rating":" "},{"name":"HENDEK OTOBAN OTO LASTİKÇİ YOL YARDIM","address":"Hamitli, Sakarya Cd. No:46, 54300 Hendek/Sakarya","website":" ","tel":"0539 789 20 79","mapsUrl":"https://www.google.com/maps/place/HENDEK+OTOBAN+OTO+LAST%C4%B0K%C3%87%C4%B0+YOL+YARDIM/@40.751663,30.6220422,12z/data=!4m9!1m3!2m2!1zbGFzdGlrw6dp!6e6!3m4!1s0x409d8e815292c331:0xe581dfca73fbe327!8m2!3d40.751663!4d30.69208","openHours":"Pazartesi,24 saat açık; Salı,24 saat açık; Çarşamba,24 saat açık; Perşembe,24 saat açık; Cuma,24 saat açık; Cumartesi,24 saat açık; Pazar,24 saat açık.","category":"Oto Lastik Dükkanı","rating":"4,4"},{"name":"Lassa-güleryüz Lastik","address":"81652 Döngelli/Akçakoca/Düzce","website":"lassa.com.tr","tel":" ","mapsUrl":"https://www.google.com/maps/place/Lassa-g%C3%BClery%C3%BCz+Lastik/@41.0821636,31.10698,12z/data=!4m9!1m3!2m2!1zbGFzdGlrw6dp!6e6!3m4!1s0x409db20e6c90880b:0x5b648e79e82a220!8m2!3d41.0821636!4d31.1770178","openHours":" ","category":"Oto Lastik Dükkanı","rating":"5,0"},{"name":"Hendek Otoban Oto Lastikçi Yol Yardım","address":"Hamitli, Merkez Sk. No: 90, 54300 Hendek/Sakarya","website":" ","tel":"0545 321 64 54","mapsUrl":"https://www.google.com/maps/place/Hendek+Otoban+Oto+Lastik%C3%A7i+Yol+Yard%C4%B1m/@40.752078,30.6273908,12z/data=!4m9!1m3!2m2!1zbGFzdGlrw6dp!6e6!3m4!1s0x409d89a4f193e50d:0x12c413a8aebb5d17!8m2!3d40.752078!4d30.6974286","openHours":"Pazartesi,24 saat açık; Salı,24 saat açık; Çarşamba,24 saat açık; Perşembe,24 saat açık; Cuma,24 saat açık; Cumartesi,24 saat açık; Pazar,24 saat açık.","category":"Oto Lastik Dükkanı","rating":"5,0"},{"name":"Start Oto Lastik","address":"Paşaköy, Bolu Düzce Yolu, 14100 Bolu Merkez/Bolu","website":" ","tel":" ","mapsUrl":"https://www.google.com/maps/place/Start+Oto+Lastik/@40.8438265,31.1040097,12z/data=!4m9!1m3!2m2!1zbGFzdGlrw6dp!6e6!3m4!1s0x409d3f88b7a006a7:0x6f0bb61b26d2954c!8m2!3d40.7323461!4d31.5658205","openHours":"Pazartesi,08:00 - 20:00; Salı,08:00 - 20:00; Çarşamba,08:00 - 20:00; Perşembe,08:00 - 20:00; Cuma,08:00 - 20:00; Cumartesi,08:00 - 20:00; Pazar,08:00 - 20:00.","category":"Oto Lastik Dükkanı","rating":"4,6"},{"name":"HENDEK EN YAKIN OTO LASTİKÇİ YOL YARDIM","address":"Hamitli Mah. Sakarya Cad. No: 40 Hendek Parkshop, 54300 Hendek/Sakarya","website":"business.site","tel":"0533 713 96 20","mapsUrl":"https://www.google.com/maps/place/HENDEK+EN+YAKIN+OTO+LAST%C4%B0K%C3%87%C4%B0+YOL+YARDIM/@40.7531767,30.6279266,12z/data=!4m9!1m3!2m2!1zbGFzdGlrw6dp!6e6!3m4!1s0x409d89e51881cadd:0xfc3d215ee28eac3f!8m2!3d40.7531767!4d30.6979644","openHours":"Pazartesi,24 saat açık; Salı,24 saat açık; Çarşamba,24 saat açık; Perşembe,24 saat açık; Cuma,24 saat açık; Cumartesi,24 saat açık; Pazar,24 saat açık.","category":"Oto Lastik Dükkanı","rating":"5,0"},{"name":"Hendek En Yakın Oto Lastikçi Yol Yardım","address":"Hamitli Mahallesi Sakarya Caddesi No:42 Hendek Parkshop, 54300 Hendek/Sakarya","website":" ","tel":"0533 713 96 20","mapsUrl":"https://www.google.com/maps/place/Hendek+En+Yak%C4%B1n+Oto+Lastik%C3%A7i+Yol+Yard%C4%B1m/@40.7521727,30.6232374,12z/data=!4m9!1m3!2m2!1zbGFzdGlrw6dp!6e6!3m4!1s0x409d890414277ac5:0x75546645f6698321!8m2!3d40.7521727!4d30.6932752","openHours":"Pazartesi,24 saat açık; Salı,24 saat açık; Çarşamba,24 saat açık; Perşembe,24 saat açık; Cuma,24 saat açık; Cumartesi,24 saat açık; Pazar,24 saat açık.","category":"Oto Lastik Mağazası","rating":"5,0"},{"name":"Oto Lastikçi","address":"Ankara Bolu Yolu, 14030 Yeniçaydurt/Bolu Merkez/Bolu","website":" ","tel":"0554 571 07 59","mapsUrl":"https://www.google.com/maps/place/Oto+Lastik%C3%A7i/@40.752565,31.6962273,12z/data=!4m9!1m3!2m2!1zbGFzdGlrw6dp!6e6!3m4!1s0x409d3a3d711c6525:0xe4fb4bb9343ee923!8m2!3d40.752565!4d31.7662651","openHours":"Pazartesi,24 saat açık; Salı,24 saat açık; Çarşamba,24 saat açık; Perşembe,24 saat açık; Cuma,24 saat açık; Cumartesi,24 saat açık; Pazar,24 saat açık.","category":"Oto Lastik Dükkanı","rating":"3,7"},{"name":"Eren Oto Lastik Yol Yardım","address":"Yeni Mah, Atatürk Bulvarı 136 A, 54300 Hendek/Sakarya","website":"eren-oto-lastik.business.site","tel":"0544 851 94 86","mapsUrl":"https://www.google.com/maps/place/Eren+Oto+Lastik+Yol+Yard%C4%B1m/@40.794985,30.6648082,12z/data=!4m9!1m3!2m2!1zbGFzdGlrw6dp!6e6!3m4!1s0x409d8e631940200b:0xf92d1153e7b33ce4!8m2!3d40.794985!4d30.734846","openHours":"Pazartesi,24 saat açık; Salı,24 saat açık; Çarşamba,24 saat açık; Perşembe,24 saat açık; Cuma,24 saat açık; Cumartesi,24 saat açık; Pazar,24 saat açık.","category":"Oto Lastik Mağazası","rating":"4,8"},{"name":"Turan Oto Döşeme","address":"Kültür, 790. Sk. NO:5, 81600 Düzce Merkez/Düzce","website":"turanotodoseme.com","tel":"(0380) 514 66 78","mapsUrl":"https://www.google.com/maps/place/Turan+Oto+D%C3%B6%C5%9Feme/@40.8438265,31.1040097,12z/data=!4m9!1m3!2m2!1zbGFzdGlrw6dp!6e6!3m4!1s0x409d7565d5455929:0x60a9938730cf0df!8m2!3d40.8472222!4d31.1541667","openHours":"Pazartesi,08:00 - 18:00; Salı,08:00 - 18:00; Çarşamba,08:00 - 18:00; Perşembe,08:00 - 18:00; Cuma,08:00 - 19:00; Cumartesi,08:00 - 19:00; Pazar,Kapalı.","category":"Oto Karoser Parçaları Tedarikçisi","rating":"4,5"},{"name":"Hendek Lastikçi Yol Yardım","address":"Yağbasan, merkez mevki no99, 54000 Hendek/Sakarya","website":"business.site","tel":"0544 501 90 85","mapsUrl":"https://www.google.com/maps/place/Hendek+Lastik%C3%A7i+Yol+Yard%C4%B1m/@40.7764394,30.5390956,12z/data=!4m9!1m3!2m2!1zbGFzdGlrw6dp!6e6!3m4!1s0x409d8b4ee3bee37d:0x75bc83b2f232cb04!8m2!3d40.7764394!4d30.6091334","openHours":"Pazartesi,24 saat açık; Salı,24 saat açık; Çarşamba,24 saat açık; Perşembe,24 saat açık; Cuma,24 saat açık; Cumartesi,24 saat açık; Pazar,24 saat açık.","category":"Oto Lastik Dükkanı","rating":"5,0"},{"name":"KDZ EREĞLİ EN YAKIN OTO LASTİK TAMİR YOL YARDIM SERVİSİ 7 24 AÇIK LASTİKÇİ","address":"KIŞLA MAH. SANAYİ SİTESİ M-21, 67300 Ereğli/Zonguldak","website":"esnafwebsayfalari.com","tel":"0542 568 19 96","mapsUrl":"https://www.google.com/maps/place/KDZ+ERE%C4%9EL%C4%B0+EN+YAKIN+OTO+LAST%C4%B0K+TAM%C4%B0R+YOL+YARDIM+SERV%C4%B0S%C4%B0+7+24+A%C3%87IK+LAST%C4%B0K%C3%87%C4%B0/@41.2593211,31.3663329,12z/data=!4m9!1m3!2m2!1zbGFzdGlrw6dp!6e6!3m4!1s0x409c5b3b16809983:0xe75b2ac675c89b46!8m2!3d41.2593211!4d31.4363707","openHours":" ","category":"Oto Lastik Dükkanı","rating":"4,5"}]