[{"name":"Feraye gökçe kuaför","address":"Burhaniye, Bolu Cd. No:1, 81010 Düzce Merkez/Düzce","website":" ","tel":"0534 581 11 16","mapsUrl":"https://www.google.com/maps/place/Feraye+g%C3%B6k%C3%A7e+kuaf%C3%B6r/@40.843849,31.15654,14z/data=!4m8!1m2!2m1!1za3VhZsO2cg!3m4!1s0x409d7545303a50c3:0xd1f1ce434df342de!8m2!3d40.8390522!4d31.1628666","openHours":"Perşembe,07:45 - 22:00; Cuma,07:45 - 22:00; Cumartesi,07:45 - 22:00; Pazar,07:45 - 22:00; Pazartesi,07:45 - 22:00; Salı,07:45 - 22:00; Çarşamba,07:45 - 22:00.","category":"Kuaför","rating":"4,5"},{"name":"AÇELYA BAYAN KUAFÖRÜ","address":"Şerefiye, Atatürk Blv. No:1, 81010 Düzce Merkez/Düzce","website":" ","tel":" ","mapsUrl":"https://www.google.com/maps/place/A%C3%87ELYA+BAYAN+KUAF%C3%96R%C3%9C/@40.8400004,31.1541856,16z/data=!4m8!1m2!2m1!1za3VhZsO2cg!3m4!1s0x409d75453406d30d:0x5ed418f053967c74!8m2!3d40.838983!4d31.162579","openHours":" ","category":"Kuaför","rating":" "},{"name":"KUAFÖR SUNAY","address":"Cedidiye, Firuze Sk. No:8, 81020 Düzce Merkez/Düzce","website":" ","tel":" ","mapsUrl":"https://www.google.com/maps/place/KUAF%C3%96R+SUNAY/@40.8400004,31.1541856,16z/data=!4m8!1m2!2m1!1za3VhZsO2cg!3m4!1s0x409d755b280bfa39:0xc44d0ac71522093e!8m2!3d40.838607!4d31.1607028","openHours":" ","category":"Kuaför","rating":"5,0"},{"name":"YELDA GÜL SAÇ&TÜRBAN TASARIM MERKEZİ","address":"Camikebir, Mareşal Fevzi Çakmak Sk. no 5, 81000 Merkez/Düzce","website":"business.site","tel":"0541 512 17 13","mapsUrl":"https://www.google.com/maps/place/YELDA+G%C3%9CL+SA%C3%87%26T%C3%9CRBAN+TASARIM+MERKEZ%C4%B0/@40.8400004,31.1541856,16z/data=!4m8!1m2!2m1!1za3VhZsO2cg!3m4!1s0x409d75d950b3da45:0x47e01d15208b4ebf!8m2!3d40.8390441!4d31.1584496","openHours":"Perşembe,08:00 - 20:00; Cuma,08:00 - 20:00; Cumartesi,08:00 - 20:00; Pazar,08:00 - 20:00; Pazartesi,08:00 - 20:00; Salı,08:00 - 20:00; Çarşamba,08:00 - 20:00.","category":"Kuaför","rating":"3,1"},{"name":"Özen Bayan Kuaförü","address":"Hacı Hamdi Sk. No:7,Cedidiye Mahallesi, bulak işhanı zemin kat, 81020 merkez","website":" ","tel":"0535 232 16 38","mapsUrl":"https://www.google.com/maps/place/%C3%96zen+Bayan+Kuaf%C3%B6r%C3%BC/@40.8400004,31.1541856,16z/data=!4m8!1m2!2m1!1za3VhZsO2cg!3m4!1s0x409d757d194b21a3:0xbfa67f53588adc43!8m2!3d40.8381061!4d31.1612958","openHours":"Perşembe,09:30 - 19:00; Cuma,09:30 - 19:00; Cumartesi,09:30 - 19:00; Pazar,09:30 - 19:00; Pazartesi,09:30 - 19:00; Salı,Kapalı; Çarşamba,09:30 - 19:00.","category":"Kuaför","rating":"5,0"},{"name":"Karizma Bayan Kuaförü","address":"Kültür, Mansur Bayram Cd., 81600 Düzce Merkez/Düzce","website":" ","tel":"(0380) 514 19 63","mapsUrl":"https://www.google.com/maps/place/Karizma+Bayan+Kuaf%C3%B6r%C3%BC/@40.8400004,31.1541856,16z/data=!4m8!1m2!2m1!1za3VhZsO2cg!3m4!1s0x409d755a11884967:0x50e651e7ae619b8f!8m2!3d40.8410434!4d31.1582288","openHours":"Perşembe,10:00 - 19:30; Cuma,10:00 - 19:30; Cumartesi,10:00 - 19:30; Pazar,10:00 - 19:30; Pazartesi,10:00 - 19:30; Salı,10:00 - 19:30; Çarşamba,10:00 - 19:30.","category":"Kuaför","rating":"5,0"},{"name":"Kardeşler Bayan Kuaförü","address":"Camikebir, Mareşal Fevzi Çakmak Sok. No:9, 81020 Düzce Merkez/Düzce","website":"firmasec.com","tel":"(0380) 523 73 82","mapsUrl":"https://www.google.com/maps/place/Karde%C5%9Fler+Bayan+Kuaf%C3%B6r%C3%BC/@40.8400004,31.1541856,16z/data=!4m8!1m2!2m1!1za3VhZsO2cg!3m4!1s0x409d7553636d7b27:0xf440ac3f7dab4c2b!8m2!3d40.8389646!4d31.1583634","openHours":" ","category":"Kuaför","rating":"4,2"},{"name":"DENİZ ERKEK KUAFÖRÜ","address":"Burhaniye, General Kazım Sk. No:5 D:1, 81010 Düzce Merkez/Düzce","website":" ","tel":"0545 334 21 69","mapsUrl":"https://www.google.com/maps/place/DEN%C4%B0Z+ERKEK+KUAF%C3%96R%C3%9C/@40.8400004,31.1541856,16z/data=!4m8!1m2!2m1!1za3VhZsO2cg!3m4!1s0x409d756c57d5396d:0x180bbf9be88f1462!8m2!3d40.8390546!4d31.1638879","openHours":" ","category":"Kuaför","rating":"5,0"},{"name":"Damla Sac tasarım merkezi","address":"Burhaniye, Atatürk Blv., 81010 Düzce Merkez/Düzce","website":" ","tel":"0544 464 66 54","mapsUrl":"https://www.google.com/maps/place/Damla+Sac+tasar%C4%B1m+merkezi/@40.8400004,31.1541856,16z/data=!4m8!1m2!2m1!1za3VhZsO2cg!3m4!1s0x409d75500f033325:0xdb0a9f291071bca9!8m2!3d40.8399953!4d31.1630573","openHours":"Perşembe,08:00 - 18:00; Cuma,08:00 - 18:00; Cumartesi,08:00 - 18:00; Pazar,08:00 - 18:00; Pazartesi,08:00 - 18:00; Salı,Kapalı; Çarşamba,08:00 - 18:00.","category":"Kuaför","rating":"5,0"},{"name":"Kuaför Hatice Düzce","address":"Şerefiye, Kuaför Hatice, Necatibey Sk. No:12D, 81010 Merkez/Düzce","website":"business.site","tel":"0544 270 49 39","mapsUrl":"https://www.google.com/maps/place/Kuaf%C3%B6r+Hatice+D%C3%BCzce/@40.8400004,31.1541856,16z/data=!4m8!1m2!2m1!1za3VhZsO2cg!3m4!1s0x409d755a61af8afd:0x48ac1b872e2d0a34!8m2!3d40.842006!4d31.161979","openHours":"Perşembe,10:00 - 18:00; Cuma,10:00 - 18:00; Cumartesi,10:00 - 18:00; Pazar,10:00 - 18:00; Pazartesi,09:00 - 18:00; Salı,Kapalı; Çarşamba,10:00 - 18:00.","category":"Kuaför","rating":"4,9"},{"name":"Işık erkek kuaförü","address":"Şerefiye, Çınlar Sk., 81010 Düzce Merkez/Düzce","website":" ","tel":" ","mapsUrl":"https://www.google.com/maps/place/I%C5%9F%C4%B1k+erkek+kuaf%C3%B6r%C3%BC/@40.8400004,31.1541856,16z/data=!4m8!1m2!2m1!1za3VhZsO2cg!3m4!1s0x409d75a85476f66d:0xe3061d9f8d18a6e8!8m2!3d40.8395867!4d31.1612211","openHours":" ","category":"Kuaför","rating":" "},{"name":"Türkan Bayan Kuaförü","address":"Camikebir, Duman apartmanı, Alemdar Sk. D:kat 2, 81020 Merkez/Düzce","website":" ","tel":"(0380) 523 01 30","mapsUrl":"https://www.google.com/maps/place/T%C3%BCrkan+Bayan+Kuaf%C3%B6r%C3%BC/@40.8400004,31.1541856,16z/data=!4m8!1m2!2m1!1za3VhZsO2cg!3m4!1s0x409d75e1c42db9f3:0x7bd3808ec8b0dcbc!8m2!3d40.8394339!4d31.1570761","openHours":"Perşembe,09:00 - 20:00; Cuma,09:00 - 20:00; Cumartesi,09:00 - 20:00; Pazar,09:00 - 20:00; Pazartesi,09:00 - 20:00; Salı,Kapalı; Çarşamba,09:00 - 20:00.","category":"Kuaför","rating":"4,0"},{"name":"MISS Kadın Kuaförü","address":"Cedidiye, Hükümet Sk. No:14, 81020 Düzce Merkez/Düzce","website":" ","tel":" ","mapsUrl":"https://www.google.com/maps/place/MISS+Kad%C4%B1n+Kuaf%C3%B6r%C3%BC/@40.8400004,31.1541856,16z/data=!4m8!1m2!2m1!1za3VhZsO2cg!3m4!1s0x409d7544c0554727:0x82352e09e5af65ef!8m2!3d40.837257!4d31.1618248","openHours":" ","category":"Kuaför","rating":" "},{"name":"Kuaför Ersin","address":"Kültür, Alan Sk. No:4, 81600 Düzce Merkez/Düzce","website":"kuaforersin.com.tr","tel":"(0380) 512 30 11","mapsUrl":"https://www.google.com/maps/place/Kuaf%C3%B6r+Ersin/@40.8400004,31.1541856,16z/data=!4m8!1m2!2m1!1za3VhZsO2cg!3m4!1s0x409d7553636d7b27:0xfe32651e274e6b74!8m2!3d40.842744!4d31.1547935","openHours":"Perşembe,08:00 - 19:30; Cuma,08:00 - 19:30; Cumartesi,08:00 - 19:30; Pazar,08:00 - 19:30; Pazartesi,08:00 - 19:30; Salı,Kapalı; Çarşamba,08:00 - 19:30.","category":"Kuaför","rating":"4,4"},{"name":"Konak Kadın Kuaförü","address":"Camikebir, Konuralp Sk. No:2, 81020 Düzce Merkez/Düzce","website":" ","tel":" ","mapsUrl":"https://www.google.com/maps/place/Konak+Kad%C4%B1n+Kuaf%C3%B6r%C3%BC/@40.8400004,31.1541856,16z/data=!4m8!1m2!2m1!1za3VhZsO2cg!3m4!1s0x409d755911de07b5:0x1e6a805166866d6d!8m2!3d40.840184!4d31.153238","openHours":" ","category":"Kuaför","rating":"4,3"},{"name":"Altınsaray Erkek Kuaförü","address":"Şerefiye, Çınlar Sk. No:4, 81010 Düzce Merkez/Düzce","website":" ","tel":" ","mapsUrl":"https://www.google.com/maps/place/Alt%C4%B1nsaray+Erkek+Kuaf%C3%B6r%C3%BC/@40.8400004,31.1541856,16z/data=!4m8!1m2!2m1!1za3VhZsO2cg!3m4!1s0x409d755ac55e6c1d:0x91e6f8c09a2ed5cf!8m2!3d40.8391339!4d31.1612931","openHours":" ","category":"Kuaför","rating":"3,0"},{"name":"Stil Bayan Kuaför Mehmet / Düzce","address":"Kültür, Konak Sk. No:1, 81600 Düzce Merkez/Düzce","website":" ","tel":"(0380) 523 38 85","mapsUrl":"https://www.google.com/maps/place/Stil+Bayan+Kuaf%C3%B6r+Mehmet+%2F+D%C3%BCzce/@40.8400004,31.1541856,16z/data=!4m8!1m2!2m1!1za3VhZsO2cg!3m4!1s0x409d755a21e1d2db:0x922eae28f8d33a48!8m2!3d40.8409282!4d31.1570053","openHours":"Perşembe,09:00 - 21:00; Cuma,09:00 - 21:00; Cumartesi,09:00 - 21:00; Pazar,09:00 - 21:00; Pazartesi,09:00 - 21:00; Salı,09:00 - 21:00; Çarşamba,09:00 - 21:00.","category":"Kuaför","rating":"3,6"},{"name":"FATOŞ SAÇ TASARIM MERKEZİ","address":"Kültür, Konak Sk. No:5, 81010 Düzce Merkez/Düzce","website":"facebook.com","tel":"(0380) 523 08 45","mapsUrl":"https://www.google.com/maps/place/FATO%C5%9E+SA%C3%87+TASARIM+MERKEZ%C4%B0/@40.8400004,31.1541856,16z/data=!4m8!1m2!2m1!1za3VhZsO2cg!3m4!1s0x409d7559f5fb55a5:0x4864e1699574e314!8m2!3d40.841244!4d31.1570127","openHours":"Perşembe,08:30 - 19:30; Cuma,08:30 - 19:30; Cumartesi,08:30 - 19:30; Pazar,08:30 - 19:30; Pazartesi,08:30 - 19:30; Salı,08:30 - 19:30; Çarşamba,08:30 - 19:30.","category":"Kuaför","rating":"3,8"},{"name":"Tuğçe Kuaför & Güzellik Salonu","address":"Camikebir, 81020 Düzce Merkez/Düzce","website":" ","tel":"(0380) 523 77 00","mapsUrl":"https://www.google.com/maps/place/Tu%C4%9F%C3%A7e+Kuaf%C3%B6r+%26+G%C3%BCzellik+Salonu/@40.8400004,31.1541856,16z/data=!4m8!1m2!2m1!1za3VhZsO2cg!3m4!1s0x409d755708fbbd3f:0x12c0cbd5e5bb73fa!8m2!3d40.8390389!4d31.1585105","openHours":"Perşembe,08:00 - 20:00; Cuma,08:00 - 20:00; Cumartesi,08:00 - 20:00; Pazar,08:00 - 20:00; Pazartesi,08:00 - 20:00; Salı,08:00 - 20:00; Çarşamba,08:00 - 20:00.","category":"Kuaför","rating":"3,7"},{"name":"Şimal Bayan Kuaförü Cemile","address":"Şimal Bayan Kuaförü Cemile Kültür mh. Kültür sk. Ethemin Yeri karşısı No:2 Kat:2, 81600 Merkez/Düzce","website":" ","tel":"0541 842 28 86","mapsUrl":"https://www.google.com/maps/place/%C5%9Eimal+Bayan+Kuaf%C3%B6r%C3%BC+Cemile/@40.8400004,31.1541856,16z/data=!4m8!1m2!2m1!1za3VhZsO2cg!3m4!1s0x409d758772e08029:0x371d8fd4878492a3!8m2!3d40.8402676!4d31.1587322","openHours":"Perşembe,09:00 - 20:30; Cuma,09:00 - 20:30; Cumartesi,09:00 - 20:30; Pazar,09:00 - 20:30; Pazartesi,09:00 - 20:30; Salı,Kapalı; Çarşamba,09:00 - 20:30.","category":"Kuaför","rating":"5,0"},{"name":"66 Perde","address":"Cedidiye, Kızılay Meydanı, Bayram Saniye Sk. No: 8/B, 81100 Düzce","website":"66perde.business.site","tel":"0554 585 72 74","mapsUrl":"https://www.google.com/maps/place/66+Perde/@40.843849,31.15654,14z/data=!4m8!1m2!2m1!1sPerdeci!3m4!1s0x409d0aad4097d5d5:0x24068f0bb640ad8f!8m2!3d40.838147!4d31.159954","openHours":"Perşembe,09:00 - 19:00; Cuma,09:00 - 19:00; Cumartesi,09:00 - 19:00; Pazar,Kapalı; Pazartesi,09:00 - 19:00; Salı,09:00 - 19:00; Çarşamba,09:00 - 19:00.","category":"Perde Mağazası","rating":"5,0"},{"name":"GÜL PERDE","address":"Kültür, Akçakoca Cd. No:15, 81600 Düzce Merkez/Düzce","website":" ","tel":"0554 867 35 10","mapsUrl":"https://www.google.com/maps/place/G%C3%9CL+PERDE/@40.8438464,31.15654,14z/data=!4m8!1m2!2m1!1sPerdeci!3m4!1s0x409d755a607fe7b5:0x6f94627a71b9798e!8m2!3d40.8402074!4d31.1594344","openHours":"Perşembe,09:30 - 21:00; Cuma,09:30 - 21:00; Cumartesi,09:30 - 21:00; Pazar,Kapalı; Pazartesi,09:30 - 21:00; Salı,09:30 - 21:00; Çarşamba,09:30 - 21:00.","category":"Ev Eşyaları Mağazası","rating":" "},{"name":"Eda Perde","address":"Cedidiye Mah Mimar Sinan Cad, Necip Güney Sk. No:15, 81010 Merkez/Düzce","website":" ","tel":"(0380) 514 84 24","mapsUrl":"https://www.google.com/maps/place/Eda+Perde/@40.8438464,31.15654,14z/data=!4m8!1m2!2m1!1sPerdeci!3m4!1s0x409d755361880a6d:0x220b1b8e9334ebdc!8m2!3d40.837066!4d31.1613134","openHours":"Perşembe,09:00 - 19:00; Cuma,09:00 - 19:00; Cumartesi,09:00 - 19:00; Pazar,Kapalı; Pazartesi,09:00 - 19:00; Salı,09:00 - 19:00; Çarşamba,09:00 - 19:00.","category":"Kumaş Mağazası","rating":"4,0"},{"name":"ELİF PERDE","address":"Şerefiye, a, Atatürk Blv. No:13, 81010 Düzce Merkez/Düzce","website":"tikla.com.tr","tel":"(0380) 524 61 44","mapsUrl":"https://www.google.com/maps/place/EL%C4%B0F+PERDE/@40.8438464,31.15654,14z/data=!4m8!1m2!2m1!1sPerdeci!3m4!1s0x409d755ab32295eb:0x5cc1e74f86d67d75!8m2!3d40.839701!4d31.162782","openHours":"Perşembe,08:00 - 20:30; Cuma,08:00 - 20:30; Cumartesi,08:00 - 20:30; Pazar,Kapalı; Pazartesi,08:00 - 20:30; Salı,08:00 - 20:30; Çarşamba,08:00 - 20:30.","category":"Ev Eşyaları Mağazası","rating":"5,0"},{"name":"Kocaoğlu Perde","address":"Camikebir, İstanbul Cd. No:107, 81020 Merkez/Düzce Merkez/Düzce","website":" ","tel":"(0380) 523 37 58","mapsUrl":"https://www.google.com/maps/place/Kocao%C4%9Flu+Perde/@40.8438464,31.15654,14z/data=!4m8!1m2!2m1!1sPerdeci!3m4!1s0x409d9fe19246a8ff:0x4458fecf89a87569!8m2!3d40.8401839!4d31.1455966","openHours":"Perşembe,09:00 - 18:30; Cuma,09:00 - 18:30; Cumartesi,09:00 - 18:30; Pazar,Kapalı; Pazartesi,09:00 - 18:30; Salı,09:00 - 18:30; Çarşamba,09:00 - 18:30.","category":"Perde Mağazası","rating":"3,0"},{"name":"Velioğlu Perde","address":"İstanbul Caddesi Malatyalı Pasajı No:Z98/14, 81100 Merkez/Düzce","website":" ","tel":"(0380) 514 21 81","mapsUrl":"https://www.google.com/maps/place/Velio%C4%9Flu+Perde/@40.8438464,31.15654,14z/data=!4m8!1m2!2m1!1sPerdeci!3m4!1s0x409d755a569a85f7:0x4baffc9796bc41aa!8m2!3d40.839609!4d31.158625","openHours":"Perşembe,09:00 - 20:00; Cuma,09:00 - 20:00; Cumartesi,09:00 - 20:00; Pazar,Kapalı; Pazartesi,09:00 - 20:00; Salı,09:00 - 20:00; Çarşamba,09:00 - 20:00.","category":"Perde Mağazası","rating":"5,0"},{"name":"Çetinkaya Perde Düzce","address":"Burhaniye, Atatürk Blv. 44/A, 81100 Düzce Merkez/Düzce","website":" ","tel":"(0380) 514 28 58","mapsUrl":"https://www.google.com/maps/place/%C3%87etinkaya+Perde+D%C3%BCzce/@40.8438464,31.15654,14z/data=!4m8!1m2!2m1!1sPerdeci!3m4!1s0x409d75504ba6f58d:0xec7b30de198aed7a!8m2!3d40.842225!4d31.163789","openHours":"Perşembe,08:00 - 21:00; Cuma,08:00 - 21:00; Cumartesi,08:00 - 21:00; Pazar,10:30 - 20:00; Pazartesi,08:00 - 21:00; Salı,08:00 - 21:00; Çarşamba,08:00 - 21:00.","category":"Perde Mağazası","rating":"4,8"},{"name":"Özçelik Perde","address":"Cedidiye, 5858 Sk. No:1/m, 81000 Merkez/Düzce","website":" ","tel":"0532 100 78 23","mapsUrl":"https://www.google.com/maps/place/%C3%96z%C3%A7elik+Perde/@40.8438464,31.15654,14z/data=!4m8!1m2!2m1!1sPerdeci!3m4!1s0x409d755ad88f34a5:0xb76526be17643597!8m2!3d40.823834!4d31.175741","openHours":"Perşembe,07:00 - 11:13; Cuma,07:00 - 11:13; Cumartesi,07:00 - 11:13; Pazar,07:00 - 11:13; Pazartesi,07:00 - 11:13; Salı,07:00 - 11:13; Çarşamba,07:00 - 11:13.","category":"Perde Mağazası","rating":" "},{"name":"düzce perde","address":"Uzun Mustafa, Nezih Tütüncüoğlu Bulvari No:27, 81100 merkez/Düzce Merkez/Düzce","website":" ","tel":"(0380) 514 66 16","mapsUrl":"https://www.google.com/maps/place/d%C3%BCzce+perde/@40.8438464,31.15654,14z/data=!4m8!1m2!2m1!1sPerdeci!3m4!1s0x409d9fe42611c2b5:0x289b0fbdd2e9e412!8m2!3d40.842725!4d31.140199","openHours":" ","category":"Mefruşatçı","rating":"4,0"},{"name":"Pırıltı Perde Evi","address":"Hamidiye, 1259. Sk. No: 5/a D:2, 81030 Düzce Merkez/Düzce","website":" ","tel":"0544 212 63 13","mapsUrl":"https://www.google.com/maps/place/P%C4%B1r%C4%B1lt%C4%B1+Perde+Evi/@40.8438464,31.15654,14z/data=!4m8!1m2!2m1!1sPerdeci!3m4!1s0x409d0aaaec6765bb:0x2b8b63b8d33550ed!8m2!3d40.8510102!4d31.163322","openHours":"Perşembe,09:00 - 19:00; Cuma,09:00 - 19:00; Cumartesi,09:00 - 19:00; Pazar,Kapalı; Pazartesi,09:00 - 19:00; Salı,09:00 - 19:00; Çarşamba,09:00 - 19:00.","category":"Perde Mağazası","rating":"5,0"},{"name":"Gündoğdular Perde","address":"Cedidiye, Kızılay Meydanı No:7, 81020 Düzce Merkez/Düzce","website":" ","tel":"(0380) 512 22 22","mapsUrl":"https://www.google.com/maps/place/G%C3%BCndo%C4%9Fdular+Perde/@40.8438464,31.15654,14z/data=!4m8!1m2!2m1!1sPerdeci!3m4!1s0x409d755b2c306db9:0xceaadddf82b38d14!8m2!3d40.838308!4d31.160678","openHours":"Perşembe,09:00 - 20:30; Cuma,09:00 - 20:30; Cumartesi,09:00 - 20:30; Pazar,13:00 - 18:00; Pazartesi,09:00 - 20:30; Salı,09:00 - 20:30; Çarşamba,09:00 - 20:30.","category":"Mobilya mağazası","rating":"4,1"},{"name":"Beyaz Perde Tasarım Evi Düzce Merkez","address":"Kültür, Çamlı Sk. No:2, 81600 Düzce Merkez/Düzce","website":" ","tel":"0539 791 67 25","mapsUrl":"https://www.google.com/maps/place/Beyaz+Perde+Tasar%C4%B1m+Evi+D%C3%BCzce+Merkez/@40.8438464,31.15654,14z/data=!4m8!1m2!2m1!1sPerdeci!3m4!1s0x409d7558a5410299:0xeca5e6e025599f5e!8m2!3d40.840608!4d31.1491458","openHours":" ","category":"Ev Eşyaları Mağazası","rating":"5,0"},{"name":"Tamate Perde","address":"Azmimilli, 81020 Düzce Merkez/Düzce","website":" ","tel":" ","mapsUrl":"https://www.google.com/maps/place/Tamate+Perde/@40.8438464,31.15654,14z/data=!4m8!1m2!2m1!1sPerdeci!3m4!1s0x409d754386ed68d1:0x527a4f3fcbb90044!8m2!3d40.8355819!4d31.1625463","openHours":" ","category":" ","rating":"5,0"},{"name":"Osmanlı Perde","address":"Cedidiye, Hacı Hamdi Sk. No:23, 81020 Düzce Merkez/Düzce","website":" ","tel":" ","mapsUrl":"https://www.google.com/maps/place/Osmanl%C4%B1+Perde/@40.8438464,31.15654,14z/data=!4m8!1m2!2m1!1sPerdeci!3m4!1s0x409d755b3ac32c75:0xc68a7c235fe304fb!8m2!3d40.838224!4d31.1600231","openHours":" ","category":" ","rating":" "},{"name":"MURAT PERDE HALI","address":"Burhaniye, 30, Atatürk Blv., 81010 Düzce Merkez","website":"muratperde.com","tel":"(0380) 523 00 58","mapsUrl":"https://www.google.com/maps/place/MURAT+PERDE+HALI/@40.8438464,31.15654,14z/data=!4m8!1m2!2m1!1sPerdeci!3m4!1s0x409d7550161ed259:0xd163717fa7e8bd01!8m2!3d40.8412763!4d31.1635493","openHours":"Perşembe,08:30 - 20:00; Cuma,08:30 - 20:00; Cumartesi,08:30 - 20:00; Pazar,08:30 - 20:00; Pazartesi,08:30 - 20:00; Salı,08:30 - 20:00; Çarşamba,08:30 - 20:00.","category":"Perde Mağazası","rating":" "},{"name":"LÛLÛ PERDE","address":"Burhaniye, Atatürk Blv. No:62, 81010 Düzce Merkez/Düzce","website":" ","tel":"0544 521 81 81","mapsUrl":"https://www.google.com/maps/place/L%C3%9BL%C3%9B+PERDE/@40.8438464,31.15654,14z/data=!4m8!1m2!2m1!1sPerdeci!3m4!1s0x409d7551a25f1f35:0x5253005174d68add!8m2!3d40.843313!4d31.1642208","openHours":"Perşembe,09:00 - 20:00; Cuma,09:00 - 20:00; Cumartesi,09:00 - 20:00; Pazar,09:00 - 20:00; Pazartesi,09:00 - 20:00; Salı,09:00 - 20:00; Çarşamba,09:00 - 20:00.","category":"Perde Mağazası","rating":"4,9"},{"name":"Gelin Çeyiz Mefruşat","address":"Cedidiye, Sinan Cad. No:41, 81020 Düzce Merkez/Düzce","website":" ","tel":"(0380) 523 82 86","mapsUrl":"https://www.google.com/maps/place/Gelin+%C3%87eyiz+Mefru%C5%9Fat/@40.8438464,31.15654,14z/data=!4m8!1m2!2m1!1sPerdeci!3m4!1s0x409d756cc4d9a6bf:0x412dff2c2008b70c!8m2!3d40.8364287!4d31.1624561","openHours":"Perşembe,09:00 - 20:00; Cuma,09:00 - 20:00; Cumartesi,09:00 - 20:00; Pazar,Kapalı; Pazartesi,09:00 - 20:00; Salı,09:00 - 20:00; Çarşamba,09:00 - 20:00.","category":"Mobilya mağazası","rating":" "},{"name":"Taç","address":"Cedidiye, Kızılay Meydanı/bayan Saniye Sok. No:4, 81020 Düzce Merkez/Düzce","website":"tac.com.tr","tel":"(0380) 514 97 01","mapsUrl":"https://www.google.com/maps/place/Ta%C3%A7/@40.8438464,31.15654,14z/data=!4m8!1m2!2m1!1sPerdeci!3m4!1s0x409d755376960833:0x766f17c4dabc9d2d!8m2!3d40.83782!4d31.1598488","openHours":" ","category":"Karyola Mağazası","rating":"5,0"},{"name":"Sevdim Perde","address":"Azmimilli, Cevdet Komit Cd. No:22, 81100 Merkez/Düzce","website":"tum-saatleri.com","tel":"0530 432 08 81","mapsUrl":"https://www.google.com/maps/place/Sevdim+Perde/@40.8438464,31.15654,14z/data=!4m8!1m2!2m1!1sPerdeci!3m4!1s0x409d75c986e09009:0x3fbdc977a403045c!8m2!3d40.833418!4d31.158709","openHours":"Perşembe,08:30 - 21:30; Cuma,08:30 - 21:30; Cumartesi,08:30 - 21:30; Pazar,08:30 - 21:30; Pazartesi,08:30 - 21:30; Salı,08:30 - 21:30; Çarşamba,08:30 - 21:30.","category":"Perde Mağazası","rating":"5,0"},{"name":"Özçelik Perde Laminat Parke","address":"Cedidiye, Bayraktar Sk. No:3, 81020 Düzce Merkez/Düzce","website":" ","tel":"(0380) 523 28 63","mapsUrl":"https://www.google.com/maps/place/%C3%96z%C3%A7elik+Perde+Laminat+Parke/@40.8438464,31.15654,14z/data=!4m8!1m2!2m1!1sPerdeci!3m4!1s0x409d755ad88c3049:0xe84082f2095916dc!8m2!3d40.8387595!4d31.1605716","openHours":"Perşembe,07:00 - 21:00; Cuma,07:00 - 21:00; Cumartesi,07:00 - 21:00; Pazar,07:00 - 21:00; Pazartesi,07:00 - 21:00; Salı,07:00 - 21:00; Çarşamba,07:00 - 21:00.","category":"Alışveriş merkezi","rating":" "},{"name":"66 Perde","address":"Cedidiye, Kızılay Meydanı, Bayram Saniye Sk. No: 8/B, 81100 Düzce","website":"66perde.business.site","tel":"0554 585 72 74","mapsUrl":"https://www.google.com/maps/place/66+Perde/@40.843849,31.15654,14z/data=!4m8!1m2!2m1!1sperdeci!3m4!1s0x409d0aad4097d5d5:0x24068f0bb640ad8f!8m2!3d40.838147!4d31.159954","openHours":"Perşembe,09:00 - 19:00; Cuma,09:00 - 19:00; Cumartesi,09:00 - 19:00; Pazar,Kapalı; Pazartesi,09:00 - 19:00; Salı,09:00 - 19:00; Çarşamba,09:00 - 19:00.","category":"Perde Mağazası","rating":"5,0"},{"name":"GÜL PERDE","address":"Kültür, Akçakoca Cd. No:15, 81600 Düzce Merkez/Düzce","website":" ","tel":"0554 867 35 10","mapsUrl":"https://www.google.com/maps/place/G%C3%9CL+PERDE/@40.8438464,31.15654,14z/data=!4m8!1m2!2m1!1sperdeci!3m4!1s0x409d755a607fe7b5:0x6f94627a71b9798e!8m2!3d40.8402074!4d31.1594344","openHours":"Perşembe,09:30 - 21:00; Cuma,09:30 - 21:00; Cumartesi,09:30 - 21:00; Pazar,Kapalı; Pazartesi,09:30 - 21:00; Salı,09:30 - 21:00; Çarşamba,09:30 - 21:00.","category":"Ev Eşyaları Mağazası","rating":" "},{"name":"Çetinkaya Perde Düzce","address":"Burhaniye, Atatürk Blv. 44/A, 81100 Düzce Merkez/Düzce","website":" ","tel":"(0380) 514 28 58","mapsUrl":"https://www.google.com/maps/place/%C3%87etinkaya+Perde+D%C3%BCzce/@40.8438464,31.15654,14z/data=!4m8!1m2!2m1!1sperdeci!3m4!1s0x409d75504ba6f58d:0xec7b30de198aed7a!8m2!3d40.842225!4d31.163789","openHours":"Perşembe,08:00 - 21:00; Cuma,08:00 - 21:00; Cumartesi,08:00 - 21:00; Pazar,10:30 - 20:00; Pazartesi,08:00 - 21:00; Salı,08:00 - 21:00; Çarşamba,08:00 - 21:00.","category":"Perde Mağazası","rating":"4,8"},{"name":"Eda Perde","address":"Cedidiye Mah Mimar Sinan Cad, Necip Güney Sk. No:15, 81010 Merkez/Düzce","website":" ","tel":"(0380) 514 84 24","mapsUrl":"https://www.google.com/maps/place/Eda+Perde/@40.8438464,31.15654,14z/data=!4m8!1m2!2m1!1sperdeci!3m4!1s0x409d755361880a6d:0x220b1b8e9334ebdc!8m2!3d40.837066!4d31.1613134","openHours":"Perşembe,09:00 - 19:00; Cuma,09:00 - 19:00; Cumartesi,09:00 - 19:00; Pazar,Kapalı; Pazartesi,09:00 - 19:00; Salı,09:00 - 19:00; Çarşamba,09:00 - 19:00.","category":"Kumaş Mağazası","rating":"4,0"},{"name":"Kocaoğlu Perde","address":"Camikebir, İstanbul Cd. No:107, 81020 Merkez/Düzce Merkez/Düzce","website":" ","tel":"(0380) 523 37 58","mapsUrl":"https://www.google.com/maps/place/Kocao%C4%9Flu+Perde/@40.8438464,31.15654,14z/data=!4m8!1m2!2m1!1sperdeci!3m4!1s0x409d9fe19246a8ff:0x4458fecf89a87569!8m2!3d40.8401839!4d31.1455966","openHours":"Perşembe,09:00 - 18:30; Cuma,09:00 - 18:30; Cumartesi,09:00 - 18:30; Pazar,Kapalı; Pazartesi,09:00 - 18:30; Salı,09:00 - 18:30; Çarşamba,09:00 - 18:30.","category":"Perde Mağazası","rating":"3,0"},{"name":"Velioğlu Perde","address":"İstanbul Caddesi Malatyalı Pasajı No:Z98/14, 81100 Merkez/Düzce","website":" ","tel":"(0380) 514 21 81","mapsUrl":"https://www.google.com/maps/place/Velio%C4%9Flu+Perde/@40.8438464,31.15654,14z/data=!4m8!1m2!2m1!1sperdeci!3m4!1s0x409d755a569a85f7:0x4baffc9796bc41aa!8m2!3d40.839609!4d31.158625","openHours":"Perşembe,09:00 - 20:00; Cuma,09:00 - 20:00; Cumartesi,09:00 - 20:00; Pazar,Kapalı; Pazartesi,09:00 - 20:00; Salı,09:00 - 20:00; Çarşamba,09:00 - 20:00.","category":"Perde Mağazası","rating":"5,0"},{"name":"Özçelik Perde","address":"Cedidiye, 5858 Sk. No:1/m, 81000 Merkez/Düzce","website":" ","tel":"0532 100 78 23","mapsUrl":"https://www.google.com/maps/place/%C3%96z%C3%A7elik+Perde/@40.8438464,31.15654,14z/data=!4m8!1m2!2m1!1sperdeci!3m4!1s0x409d755ad88f34a5:0xb76526be17643597!8m2!3d40.823834!4d31.175741","openHours":"Perşembe,07:00 - 11:13; Cuma,07:00 - 11:13; Cumartesi,07:00 - 11:13; Pazar,07:00 - 11:13; Pazartesi,07:00 - 11:13; Salı,07:00 - 11:13; Çarşamba,07:00 - 11:13.","category":"Perde Mağazası","rating":" "},{"name":"ELİF PERDE","address":"Şerefiye, a, Atatürk Blv. No:13, 81010 Düzce Merkez/Düzce","website":"tikla.com.tr","tel":"(0380) 524 61 44","mapsUrl":"https://www.google.com/maps/place/EL%C4%B0F+PERDE/@40.8438464,31.15654,14z/data=!4m8!1m2!2m1!1sperdeci!3m4!1s0x409d755ab32295eb:0x5cc1e74f86d67d75!8m2!3d40.839701!4d31.162782","openHours":"Perşembe,08:00 - 20:30; Cuma,08:00 - 20:30; Cumartesi,08:00 - 20:30; Pazar,Kapalı; Pazartesi,08:00 - 20:30; Salı,08:00 - 20:30; Çarşamba,08:00 - 20:30.","category":"Ev Eşyaları Mağazası","rating":"5,0"},{"name":"Pırıltı Perde Evi","address":"Hamidiye, 1259. Sk. No: 5/a D:2, 81030 Düzce Merkez/Düzce","website":" ","tel":"0544 212 63 13","mapsUrl":"https://www.google.com/maps/place/P%C4%B1r%C4%B1lt%C4%B1+Perde+Evi/@40.8438464,31.15654,14z/data=!4m8!1m2!2m1!1sperdeci!3m4!1s0x409d0aaaec6765bb:0x2b8b63b8d33550ed!8m2!3d40.8510102!4d31.163322","openHours":"Perşembe,09:00 - 19:00; Cuma,09:00 - 19:00; Cumartesi,09:00 - 19:00; Pazar,Kapalı; Pazartesi,09:00 - 19:00; Salı,09:00 - 19:00; Çarşamba,09:00 - 19:00.","category":"Perde Mağazası","rating":"5,0"},{"name":"düzce perde","address":"Uzun Mustafa, Nezih Tütüncüoğlu Bulvari No:27, 81100 merkez/Düzce Merkez/Düzce","website":" ","tel":"(0380) 514 66 16","mapsUrl":"https://www.google.com/maps/place/d%C3%BCzce+perde/@40.8438464,31.15654,14z/data=!4m8!1m2!2m1!1sperdeci!3m4!1s0x409d9fe42611c2b5:0x289b0fbdd2e9e412!8m2!3d40.842725!4d31.140199","openHours":" ","category":"Mefruşatçı","rating":"4,0"},{"name":"Gündoğdular Perde","address":"Cedidiye, Kızılay Meydanı No:7, 81020 Düzce Merkez/Düzce","website":" ","tel":"(0380) 512 22 22","mapsUrl":"https://www.google.com/maps/place/G%C3%BCndo%C4%9Fdular+Perde/@40.8438464,31.15654,14z/data=!4m8!1m2!2m1!1sperdeci!3m4!1s0x409d755b2c306db9:0xceaadddf82b38d14!8m2!3d40.838308!4d31.160678","openHours":"Perşembe,09:00 - 20:30; Cuma,09:00 - 20:30; Cumartesi,09:00 - 20:30; Pazar,13:00 - 18:00; Pazartesi,09:00 - 20:30; Salı,09:00 - 20:30; Çarşamba,09:00 - 20:30.","category":"Mobilya mağazası","rating":"4,1"},{"name":"Beyaz Perde Tasarım Evi Düzce Merkez","address":"Kültür, Çamlı Sk. No:2, 81600 Düzce Merkez/Düzce","website":" ","tel":"0539 791 67 25","mapsUrl":"https://www.google.com/maps/place/Beyaz+Perde+Tasar%C4%B1m+Evi+D%C3%BCzce+Merkez/@40.8438464,31.15654,14z/data=!4m8!1m2!2m1!1sperdeci!3m4!1s0x409d7558a5410299:0xeca5e6e025599f5e!8m2!3d40.840608!4d31.1491458","openHours":" ","category":"Ev Eşyaları Mağazası","rating":"5,0"},{"name":"LÛLÛ PERDE","address":"Burhaniye, Atatürk Blv. No:62, 81010 Düzce Merkez/Düzce","website":" ","tel":"0544 521 81 81","mapsUrl":"https://www.google.com/maps/place/L%C3%9BL%C3%9B+PERDE/@40.8438464,31.15654,14z/data=!4m8!1m2!2m1!1sperdeci!3m4!1s0x409d7551a25f1f35:0x5253005174d68add!8m2!3d40.843313!4d31.1642208","openHours":"Perşembe,09:00 - 20:00; Cuma,09:00 - 20:00; Cumartesi,09:00 - 20:00; Pazar,09:00 - 20:00; Pazartesi,09:00 - 20:00; Salı,09:00 - 20:00; Çarşamba,09:00 - 20:00.","category":"Perde Mağazası","rating":"4,9"},{"name":"Gelin Çeyiz Mefruşat","address":"Cedidiye, Sinan Cad. No:41, 81020 Düzce Merkez/Düzce","website":" ","tel":"(0380) 523 82 86","mapsUrl":"https://www.google.com/maps/place/Gelin+%C3%87eyiz+Mefru%C5%9Fat/@40.8438464,31.15654,14z/data=!4m8!1m2!2m1!1sperdeci!3m4!1s0x409d756cc4d9a6bf:0x412dff2c2008b70c!8m2!3d40.8364287!4d31.1624561","openHours":"Perşembe,09:00 - 20:00; Cuma,09:00 - 20:00; Cumartesi,09:00 - 20:00; Pazar,Kapalı; Pazartesi,09:00 - 20:00; Salı,09:00 - 20:00; Çarşamba,09:00 - 20:00.","category":"Mobilya mağazası","rating":" "},{"name":"MURAT PERDE HALI","address":"Burhaniye, 30, Atatürk Blv., 81010 Düzce Merkez","website":"muratperde.com","tel":"(0380) 523 00 58","mapsUrl":"https://www.google.com/maps/place/MURAT+PERDE+HALI/@40.8438464,31.15654,14z/data=!4m8!1m2!2m1!1sperdeci!3m4!1s0x409d7550161ed259:0xd163717fa7e8bd01!8m2!3d40.8412763!4d31.1635493","openHours":"Perşembe,08:30 - 20:00; Cuma,08:30 - 20:00; Cumartesi,08:30 - 20:00; Pazar,08:30 - 20:00; Pazartesi,08:30 - 20:00; Salı,08:30 - 20:00; Çarşamba,08:30 - 20:00.","category":"Perde Mağazası","rating":" "},{"name":"Sevdim Perde","address":"Azmimilli, Cevdet Komit Cd. No:22, 81100 Merkez/Düzce","website":"tum-saatleri.com","tel":"0530 432 08 81","mapsUrl":"https://www.google.com/maps/place/Sevdim+Perde/@40.8438464,31.15654,14z/data=!4m8!1m2!2m1!1sperdeci!3m4!1s0x409d75c986e09009:0x3fbdc977a403045c!8m2!3d40.833418!4d31.158709","openHours":"Perşembe,08:30 - 21:30; Cuma,08:30 - 21:30; Cumartesi,08:30 - 21:30; Pazar,08:30 - 21:30; Pazartesi,08:30 - 21:30; Salı,08:30 - 21:30; Çarşamba,08:30 - 21:30.","category":"Perde Mağazası","rating":"5,0"},{"name":"www.duzceperde.net","address":"Aziziye, Nezih Tütüncüoğlu Bulvari27/b, 81010 Düzce Merkez/Düzce","website":"duzceperde.net","tel":"(0380) 514 66 16","mapsUrl":"https://www.google.com/maps/place/www.duzceperde.net/@40.8438464,31.15654,14z/data=!4m8!1m2!2m1!1sperdeci!3m4!1s0x409d9fe67e503dc7:0x39111bd49f4d7ce0!8m2!3d40.8441117!4d31.141001","openHours":" ","category":" ","rating":" "},{"name":"Moda perde ve perde temizlik hizmetleri","address":"Yeni, Kırklar Sk. No:11, 81600 Düzce Merkez/Düzce","website":" ","tel":"0543 460 69 23","mapsUrl":"https://www.google.com/maps/place/Moda+perde+ve+perde+temizlik+hizmetleri/@40.8438464,31.15654,14z/data=!4m8!1m2!2m1!1sperdeci!3m4!1s0x409d9f33d33c3fb7:0x34445af098de44e6!8m2!3d40.8493316!4d31.147339","openHours":"Perşembe,24 saat açık; Cuma,24 saat açık; Cumartesi,24 saat açık; Pazar,Kapalı; Pazartesi,09:00 - 19:00; Salı,24 saat açık; Çarşamba,24 saat açık.","category":"Perde Mağazası","rating":" "},{"name":"Taç","address":"Cedidiye, Kızılay Meydanı/bayan Saniye Sok. No:4, 81020 Düzce Merkez/Düzce","website":"tac.com.tr","tel":"(0380) 514 97 01","mapsUrl":"https://www.google.com/maps/place/Ta%C3%A7/@40.8438464,31.15654,14z/data=!4m8!1m2!2m1!1sperdeci!3m4!1s0x409d755376960833:0x766f17c4dabc9d2d!8m2!3d40.83782!4d31.1598488","openHours":" ","category":"Karyola Mağazası","rating":"5,0"},{"name":"Baydanlar Mefruşat","address":"Çay, Mimar Sinan Cad. No:5, 81020 Düzce Merkez/Düzce","website":" ","tel":"(0380) 514 26 07","mapsUrl":"https://www.google.com/maps/place/Baydanlar+Mefru%C5%9Fat/@40.8438464,31.15654,14z/data=!4m8!1m2!2m1!1sperdeci!3m4!1s0x409d75539c35f311:0xbe9758f4f2524729!8m2!3d40.8369046!4d31.1566179","openHours":" ","category":"Mobilya mağazası","rating":"2,0"},{"name":"Tamate Perde","address":"Azmimilli, 81020 Düzce Merkez/Düzce","website":" ","tel":" ","mapsUrl":"https://www.google.com/maps/place/Tamate+Perde/@40.8438464,31.15654,14z/data=!4m9!1m3!2m2!1sperdeci!6e6!3m4!1s0x409d754386ed68d1:0x527a4f3fcbb90044!8m2!3d40.8355819!4d31.1625463","openHours":" ","category":" ","rating":"5,0"},{"name":"Taçmin Perde","address":"Aziziye, Şht. Ramazan Gel Cd. No:2, 81010, 81010 Düzce Merkez/Düzce","website":" ","tel":" ","mapsUrl":"https://www.google.com/maps/place/Ta%C3%A7min+Perde/@40.8438464,31.15654,14z/data=!4m9!1m3!2m2!1sperdeci!6e6!3m4!1s0x409d9f4eaa4cfa17:0x7d963d1e365fb4bb!8m2!3d40.8436848!4d31.1405024","openHours":" ","category":"Ev Eşyaları Mağazası","rating":"5,0"},{"name":"Taçmin Perde","address":"Aziziye, 903. Sk. No:7, 81010, 81010 Düzce Merkez/Düzce","website":" ","tel":" ","mapsUrl":"https://www.google.com/maps/place/Ta%C3%A7min+Perde/@40.8438464,31.15654,14z/data=!4m9!1m3!2m2!1sperdeci!6e6!3m4!1s0x409d9fe3c1563001:0xa3cbbe722d76e297!8m2!3d40.8464324!4d31.1404838","openHours":" ","category":"Ev Eşyaları Mağazası","rating":" "},{"name":"Osmanlı Perde","address":"Cedidiye, Hacı Hamdi Sk. No:23, 81020 Düzce Merkez/Düzce","website":" ","tel":" ","mapsUrl":"https://www.google.com/maps/place/Osmanl%C4%B1+Perde/@40.8438464,31.15654,14z/data=!4m9!1m3!2m2!1sperdeci!6e6!3m4!1s0x409d755b3ac32c75:0xc68a7c235fe304fb!8m2!3d40.838224!4d31.1600231","openHours":" ","category":" ","rating":" "},{"name":"ZİRVE HALI PERDE","address":" ","website":"zirve-hal-perde.business.site","tel":"(0380) 523 99 57","mapsUrl":"https://www.google.com/maps/place/Z%C4%B0RVE+HALI+PERDE/@40.8438464,31.15654,14z/data=!4m9!1m3!2m2!1sperdeci!6e6!3m4!1s0x409d754eec87d561:0x9ce2089b0912f491!8m2!3d40.810616!4d31.1899515","openHours":" ","category":"Ev Eşyaları Mağazası","rating":" "},{"name":"Özçelik Perde Laminat Parke","address":"Cedidiye, Bayraktar Sk. No:3, 81020 Düzce Merkez/Düzce","website":" ","tel":"(0380) 523 28 63","mapsUrl":"https://www.google.com/maps/place/%C3%96z%C3%A7elik+Perde+Laminat+Parke/@40.8438464,31.15654,14z/data=!4m9!1m3!2m2!1sperdeci!6e6!3m4!1s0x409d755ad88c3049:0xe84082f2095916dc!8m2!3d40.8387595!4d31.1605716","openHours":"Perşembe,07:00 - 21:00; Cuma,07:00 - 21:00; Cumartesi,07:00 - 21:00; Pazar,07:00 - 21:00; Pazartesi,07:00 - 21:00; Salı,07:00 - 21:00; Çarşamba,07:00 - 21:00.","category":"Alışveriş merkezi","rating":" "},{"name":"Şengüloğlu Ev Konsept","address":"Şerefiye, Atatürk Blv. No:35, 81010 Düzce Merkez/Düzce","website":"senguloglu.com.tr","tel":"(0380) 523 45 32","mapsUrl":"https://www.google.com/maps/place/%C5%9Eeng%C3%BClo%C4%9Flu+Ev+Konsept/@40.8438464,31.15654,14z/data=!4m9!1m3!2m2!1sperdeci!6e6!3m4!1s0x409d75503fc351ad:0x1962c84b4c7fe4a3!8m2!3d40.8414146!4d31.1632724","openHours":"Perşembe,08:00 - 22:00; Cuma,08:00 - 22:00; Cumartesi,08:00 - 22:00; Pazar,08:00 - 22:00; Pazartesi,08:00 - 22:00; Salı,08:00 - 22:00; Çarşamba,08:00 - 22:00.","category":"Mobilya mağazası","rating":"4,7"},{"name":"Mobilya Düzce","address":"Şerefiye, Cumhuriyet Sk. No:45, 81010 Düzce Merkez/Düzce","website":" ","tel":"0544 253 34 91","mapsUrl":"https://www.google.com/maps/place/Mobilya+D%C3%BCzce/@40.8438464,31.15654,14z/data=!4m9!1m3!2m2!1sperdeci!6e6!3m4!1s0x409d755054da6e1f:0xa53efa56195d9cfd!8m2!3d40.8426843!4d31.1627047","openHours":"Perşembe,24 saat açık; Cuma,24 saat açık; Cumartesi,24 saat açık; Pazar,24 saat açık; Pazartesi,24 saat açık; Salı,24 saat açık; Çarşamba,24 saat açık.","category":"Mutfak Mobilyası Mağazası","rating":" "},{"name":"Emin Mobilya","address":"Kültür, Büyük Cami Sok. No:7, 81600 Düzce Merkez/Düzce","website":"firmasec.com","tel":"(0380) 512 28 19","mapsUrl":"https://www.google.com/maps/place/Emin+Mobilya/@40.8438464,31.15654,14z/data=!4m9!1m3!2m2!1sperdeci!6e6!3m4!1s0x409d755708fbbd3f:0x22354a0a208e5435!8m2!3d40.843849!4d31.15654","openHours":"Perşembe,08:00 - 19:30; Cuma,08:00 - 19:30; Cumartesi,08:20 - 19:30; Pazar,12:00 - 17:30; Pazartesi,08:00 - 19:30; Salı,08:00 - 19:30; Çarşamba,08:00 - 19:30.","category":"Mobilya mağazası","rating":"4,0"},{"name":"DOĞTAŞ exclusive - Düzce","address":"Cedidiye, Bolu Cd. No:64, 81020 Düzce Merkez/Düzce","website":"dogtas.com.tr","tel":" ","mapsUrl":"https://www.google.com/maps/place/DO%C4%9ETA%C5%9E+exclusive+-+D%C3%BCzce/@40.8438464,31.15654,14z/data=!4m9!1m3!2m2!1sperdeci!6e6!3m4!1s0x409d7546621e628f:0x6c48f78d51495b78!8m2!3d40.836435!4d31.168341","openHours":"Perşembe,09:00 - 19:30; Cuma,09:00 - 19:30; Cumartesi,09:00 - 19:30; Pazar,10:30 - 19:30; Pazartesi,09:00 - 19:30; Salı,09:00 - 19:30; Çarşamba,09:00 - 19:30.","category":"Mobilya mağazası","rating":"4,1"},{"name":"Profilo sen kardesler","address":"Cedidiye, Meydan Sk. No:2, 81020 Düzce Merkez/Düzce","website":"profilo.com","tel":"(0380) 523 82 88","mapsUrl":"https://www.google.com/maps/place/Profilo+sen+kardesler/@40.8438464,31.15654,14z/data=!4m9!1m3!2m2!1sperdeci!6e6!3m4!1s0x409d7544953470ab:0xd807b879c19550f!8m2!3d40.8377567!4d31.1600351","openHours":" ","category":"Beyaz Eşya Mağazası","rating":"3,0"},{"name":"PERDECİ FİKRET KORNİŞÇİ FİKRET","address":"Gölyüzü Mah, Şht. Kani Cd. No: 50, 14100 Merkez/Bolu","website":"perdecifikret.com","tel":"0536 824 90 19","mapsUrl":"https://www.google.com/maps/place/PERDEC%C4%B0+F%C4%B0KRET+KORN%C4%B0%C5%9E%C3%87%C4%B0+F%C4%B0KRET/@40.7354602,31.5952913,14z/data=!4m9!1m3!2m2!1sperdeci!6e6!3m4!1s0x409d3ffbf6c0b409:0xbe24ba559f57eb32!8m2!3d40.7354602!4d31.6128008","openHours":"Perşembe,09:00 - 18:00; Cuma,09:00 - 18:00; Cumartesi,09:00 - 18:00; Pazar,Kapalı; Pazartesi,09:00 - 18:00; Salı,09:00 - 18:00; Çarşamba,09:00 - 18:00.","category":"Perde Mağazası","rating":" "},{"name":"DÜZCE KORNİŞ","address":"Kültür, İstanbul Cd. No:112, 81600 Düzce Merkez/Düzce","website":"hemengelse.com","tel":"0541 722 07 24","mapsUrl":"https://www.google.com/maps/place/D%C3%9CZCE+KORN%C4%B0%C5%9E/@40.8438464,31.15654,14z/data=!4m9!1m3!2m2!1sperdeci!6e6!3m4!1s0x409d755ed127e667:0x26c2bd55d42dd5a4!8m2!3d40.83999!4d31.157391","openHours":"Perşembe,24 saat açık; Cuma,24 saat açık; Cumartesi,24 saat açık; Pazar,24 saat açık; Pazartesi,24 saat açık; Salı,24 saat açık; Çarşamba,24 saat açık.","category":"Panjur ve Perde Mağazası","rating":" "},{"name":"Güven Tekstil","address":"Cedidiye, Şehit Muhtar Sok. No:10, 81020 Düzce Merkez/Düzce","website":" ","tel":"(0380) 524 16 36","mapsUrl":"https://www.google.com/maps/place/G%C3%BCven+Tekstil/@40.8438464,31.15654,14z/data=!4m9!1m3!2m2!1sperdeci!6e6!3m4!1s0x409d7544d1626719:0x55c808d46a4bf688!8m2!3d40.8377314!4d31.1631593","openHours":"Perşembe,09:00 - 20:00; Cuma,09:00 - 20:00; Cumartesi,09:00 - 20:00; Pazar,Kapalı; Pazartesi,09:00 - 20:00; Salı,09:00 - 20:00; Çarşamba,09:00 - 20:00.","category":"Giyim mağazası","rating":" "},{"name":"DivanEv Düzce","address":"Cedidiye, Bolu Cd. No:64, 81100 Merkez/Düzce","website":"divanev.com.tr","tel":"(0380) 514 17 00","mapsUrl":"https://www.google.com/maps/place/DivanEv+D%C3%BCzce/@40.8438464,31.15654,14z/data=!4m9!1m3!2m2!1sperdeci!6e6!3m4!1s0x409d75b7a52f5a83:0x3bbf527559ae778b!8m2!3d40.836418!4d31.168519","openHours":"Perşembe,09:30 - 20:00; Cuma,09:30 - 20:00; Cumartesi,09:30 - 20:00; Pazar,10:30 - 19:00; Pazartesi,09:30 - 20:00; Salı,09:30 - 20:00; Çarşamba,09:30 - 20:00.","category":"Mobilya mağazası","rating":"1,0"},{"name":"Güllüoğlu Mefruşat Perdeci Merkez Magaza","address":"Merkez, Ali Alp Cd. no 66/B, 67850 Alaplı/Zonguldak","website":" ","tel":"0539 835 02 29","mapsUrl":"https://www.google.com/maps/place/G%C3%BCll%C3%BCo%C4%9Flu+Mefru%C5%9Fat+Perdeci+Merkez+Magaza/@41.179384,31.3710385,14z/data=!4m9!1m3!2m2!1sperdeci!6e6!3m4!1s0x409c510e1a0e4641:0xb1966594daf29f02!8m2!3d41.179384!4d31.388548","openHours":" ","category":"Perde Mağazası","rating":" "},{"name":"Taçmin Tekstil (Bayram Bilim)","address":"Cedidiye, Bolu Cd. No:36, 81020 Düzce Merkez/Düzce","website":" ","tel":" ","mapsUrl":"https://www.google.com/maps/place/Ta%C3%A7min+Tekstil+(Bayram+Bilim)/@40.8438464,31.15654,14z/data=!4m9!1m3!2m2!1sperdeci!6e6!3m4!1s0x409d7545b28ab5e1:0x82b646ce05d2f73b!8m2!3d40.837437!4d31.165272","openHours":" ","category":" ","rating":" "},{"name":"Moda Plazma","address":"Cedidiye, Necip Güney Sok. No:22, 81020 Düzce Merkez/Düzce","website":"isdunyasi.org","tel":"(0380) 512 24 84","mapsUrl":"https://www.google.com/maps/place/Moda+Plazma/@40.8438464,31.15654,14z/data=!4m9!1m3!2m2!1sperdeci!6e6!3m4!1s0x409d0aab45d7f2ed:0xa7a98869559c4cb7!8m2!3d40.838045!4d31.161471","openHours":" ","category":"Giyim mağazası","rating":" "},{"name":"Baydanlar","address":"Cedidiye, Hacı Hamdi Sk. No:16, 81020 Düzce Merkez/Düzce","website":" ","tel":" ","mapsUrl":"https://www.google.com/maps/place/Baydanlar/@40.8438464,31.15654,14z/data=!4m9!1m3!2m2!1sperdeci!6e6!3m4!1s0x409d755b3b4faefd:0x6f1f6fecd17c69f2!8m2!3d40.838319!4d31.1599102","openHours":"Perşembe,08:30 - 21:00; Cuma,08:30 - 21:00; Cumartesi,08:30 - 21:00; Pazar,08:30 - 21:00; Pazartesi,08:30 - 21:00; Salı,08:30 - 21:00; Çarşamba,08:30 - 21:00.","category":"Giyim mağazası","rating":"3,0"},{"name":"Güllüoğlu Mefruşat Perdeci","address":"Müftü, 67300 Ereğli/Zonguldak","website":" ","tel":"0539 835 02 29","mapsUrl":"https://www.google.com/maps/place/G%C3%BCll%C3%BCo%C4%9Flu+Mefru%C5%9Fat+Perdeci/@41.2715826,31.41992,14z/data=!4m9!1m3!2m2!1sperdeci!6e6!3m4!1s0x409c5b37e0d83d63:0x9919ee5ef5584f0e!8m2!3d41.2715826!4d31.4374295","openHours":" ","category":"Perde Mağazası","rating":" "}]