[{"name":"Ajans Bingöl","address":"Yenişehir, Buket Sk. No:5, 12000 Bingöl Merkez/Bingöl","website":"ajansbingol.com","tel":"0543 375 37 74","mapsUrl":"https://www.google.com/maps/place/Ajans+Bing%C3%B6l/@38.884124,40.4765145,14z/data=!4m8!1m2!2m1!1sajans!3m4!1s0x4073cf92a8f9d1e5:0x6eb742f14905c460!8m2!3d38.884124!4d40.494024","openHours":"Çarşamba,08:00 - 00:00; Perşembe,08:00 - 00:00; Cuma,08:00 - 00:00; Cumartesi,08:00 - 00:00; Pazar,08:00 - 00:00; Pazartesi,08:00 - 00:00; Salı,08:00 - 00:00.","category":"Reklam Ajansı","rating":"5,0"},{"name":"Bingöl Ajans","address":"Bahçelievler, 57,, Cumhuriyet Cd. No:55, 12000 Bingöl Merkez/Bingöl","website":"bingolajans.com","tel":"(0426) 213 28 13","mapsUrl":"https://www.google.com/maps/place/Bing%C3%B6l+Ajans/@38.8853464,40.498291,14z/data=!4m8!1m2!2m1!1sajans!3m4!1s0x4073cfedc93652cb:0x1e87ff767e75a946!8m2!3d38.8871711!4d40.4910532","openHours":"Çarşamba,08:00 - 19:30; Perşembe,08:00 - 19:30; Cuma,08:00 - 19:30; Cumartesi,08:00 - 19:30; Pazar,Kapalı; Pazartesi,08:00 - 19:30; Salı,08:00 - 19:30.","category":"Reklam Ajansı","rating":"5,0"},{"name":"Nasa Reklam Bingöl","address":"Bahçelievler, Cumhuriyet Cd. No:55, 12000 Bingöl Merkez/Bingöl","website":"nasareklam.net","tel":"0544 213 28 13","mapsUrl":"https://www.google.com/maps/place/Nasa+Reklam+Bing%C3%B6l/@38.8853464,40.498291,14z/data=!4m8!1m2!2m1!1sajans!3m4!1s0x4073cfedc93652cb:0x7051a603540aeb6e!8m2!3d38.8871068!4d40.4911141","openHours":"Çarşamba,08:00 - 19:00; Perşembe,08:00 - 19:00; Cuma,08:00 - 19:00; Cumartesi,08:00 - 19:00; Pazar,Kapalı; Pazartesi,08:00 - 19:00; Salı,08:00 - 19:00.","category":"Reklam Ajansı","rating":"5,0"},{"name":"Detay Reklam","address":"İnönü Mahallesi Kültür Caddesi Kayalar Pasajı, 12000 Merkez","website":"business.site","tel":"0505 581 08 98","mapsUrl":"https://www.google.com/maps/place/Detay+Reklam/@38.8853464,40.498291,14z/data=!4m8!1m2!2m1!1sajans!3m4!1s0x4073cf46bc4d5cd5:0xc628a9ccf19d76c!8m2!3d38.8864605!4d40.4966493","openHours":"Çarşamba,08:00 - 20:00; Perşembe,08:00 - 20:00; Cuma,08:00 - 20:00; Cumartesi,08:00 - 20:00; Pazar,Kapalı; Pazartesi,08:00 - 20:00; Salı,08:00 - 20:00.","category":"Reklam Ajansı","rating":"5,0"},{"name":"Arzen Bilişim Reklam Ajansı","address":"KÜLTÜR CAD. KÜLTÜR KAVŞAĞI SOK. AKB PLAZA NO:16 KAT:5, 12000 Merkez/Bingöl","website":"arzenbilisim.com","tel":"0543 375 37 74","mapsUrl":"https://www.google.com/maps/place/Arzen+Bili%C5%9Fim+Reklam+Ajans%C4%B1/@38.8853464,40.498291,14z/data=!4m8!1m2!2m1!1sajans!3m4!1s0x4073cf6d41dabcf5:0x87510856d272b6e1!8m2!3d38.8852377!4d40.5083551","openHours":"Çarşamba,24 saat açık; Perşembe,24 saat açık; Cuma,24 saat açık; Cumartesi,24 saat açık; Pazar,24 saat açık; Pazartesi,24 saat açık; Salı,24 saat açık.","category":"Reklam Ajansı","rating":"5,0"},{"name":"MAS Reklam ve Bilişim Hizmetleri","address":"İnönü Mh Kültür Cd İklim Sk Demir Apt No:8, 12000","website":" ","tel":"(0426) 214 14 41","mapsUrl":"https://www.google.com/maps/place/MAS+Reklam+ve+Bili%C5%9Fim+Hizmetleri/@38.8853464,40.498291,14z/data=!4m8!1m2!2m1!1sajans!3m4!1s0x4073cf930b533265:0xa4462fda227efe71!8m2!3d38.885329!4d40.499253","openHours":"Çarşamba,09:00 - 19:00; Perşembe,09:00 - 19:00; Cuma,09:00 - 19:00; Cumartesi,09:00 - 19:00; Pazar,Kapalı; Pazartesi,09:00 - 19:00; Salı,09:00 - 19:00.","category":"Reklam Ajansı","rating":" "},{"name":"Ferhat Reklam Dijital Copy Center","address":"Yenişehir, Hastane Cd. No:10, 12000 Bingöl Merkez/Bingöl","website":"ferhatreklam.com.tr","tel":"0541 213 25 42","mapsUrl":"https://www.google.com/maps/place/Ferhat+Reklam+Dijital+Copy+Center/@38.8853464,40.498291,14z/data=!4m8!1m2!2m1!1sajans!3m4!1s0x4073cfed38784de3:0xc8c6fe138e2a3fc6!8m2!3d38.8831674!4d40.4985952","openHours":" ","category":"Reklam Ajansı","rating":" "},{"name":"websiten varmı","address":"Yenişehir Mh. Hastane Cd. Ceylan Apt. No:10/C, 12000 Bingöl","website":"websitenvarmi.com","tel":"0531 497 52 83","mapsUrl":"https://www.google.com/maps/place/websiten+varm%C4%B1/@38.8853464,40.498291,14z/data=!4m8!1m2!2m1!1sajans!3m4!1s0x4073cf9215c7b7af:0xb38587eff7e16f70!8m2!3d38.883117!4d40.498637","openHours":"Çarşamba,09:00 - 18:30; Perşembe,09:00 - 18:30; Cuma,09:00 - 18:30; Cumartesi,09:00 - 13:00; Pazar,Kapalı; Pazartesi,09:00 - 18:30; Salı,09:00 - 18:30.","category":"Reklam Ajansı","rating":" "},{"name":"Bin yıldız Reklam Bilgisayar","address":"İnönü, Genç Cd. No:90, 12000 Bingöl Merkez/Bingöl","website":" ","tel":"0530 391 41 94","mapsUrl":"https://www.google.com/maps/place/Bin+y%C4%B1ld%C4%B1z+Reklam+Bilgisayar/@38.8853464,40.498291,14z/data=!4m8!1m2!2m1!1sajans!3m4!1s0x4073cfecdd228297:0x10d034539884ab02!8m2!3d38.8864854!4d40.4951234","openHours":"Çarşamba,08:00 - 22:00; Perşembe,08:00 - 22:00; Cuma,08:00 - 22:00; Cumartesi,08:00 - 22:00; Pazar,08:00 - 22:00; Pazartesi,08:00 - 22:00; Salı,08:00 - 22:00.","category":"Reklam Ajansı","rating":" "},{"name":"Arzen Bingöl reklam Tabela 05433753774","address":"Kültür, Bingöl Merkez, 12000 Merkez/Bingöl","website":"arzenbilisim.com","tel":" ","mapsUrl":"https://www.google.com/maps/place/Arzen+Bing%C3%B6l+reklam+Tabela+05433753774/@38.8853464,40.498291,14z/data=!4m8!1m2!2m1!1sajans!3m4!1s0x4073cfd82f9ddf8d:0x35bd3a689cfd6a8b!8m2!3d38.8853329!4d40.5083344","openHours":"Çarşamba,09:00 - 20:00; Perşembe,09:00 - 20:00; Cuma,09:00 - 20:00; Cumartesi,09:00 - 20:00; Pazar,09:00 - 20:00; Pazartesi,09:00 - 20:00; Salı,09:00 - 20:00.","category":"Reklam Ajansı","rating":"5,0"},{"name":"Bingöl Online","address":"İnönü, 105 107, Kültür Cd., 12000 Bingöl Merkez","website":"bingolonline.com","tel":"(0426) 214 67 67","mapsUrl":"https://www.google.com/maps/place/Bing%C3%B6l+Online/@38.8853464,40.498291,14z/data=!4m8!1m2!2m1!1sajans!3m4!1s0x4073cfecca6d3707:0xe9d743adc674a0da!8m2!3d38.8863842!4d40.496625","openHours":"Çarşamba,08:00 - 18:00; Perşembe,08:00 - 18:00; Cuma,08:00 - 18:00; Cumartesi,08:00 - 17:30; Pazar,Kapalı; Pazartesi,08:00 - 18:00; Salı,08:00 - 18:00.","category":"Reklam Ajansı","rating":"3,8"},{"name":"Bingöl Sürmanşet Matbaası","address":"İnönü Mah. Kültür Cad. Elit Sineması Altı Bektaşlar Pasajı No:46/D, 12000 Bingöl","website":" ","tel":"0543 213 43 67","mapsUrl":"https://www.google.com/maps/place/Bing%C3%B6l+S%C3%BCrman%C5%9Fet+Matbaas%C4%B1/@38.8853464,40.498291,14z/data=!4m8!1m2!2m1!1sajans!3m4!1s0x4073cf9379a8fbdb:0xa621dbd0da6c98e0!8m2!3d38.885707!4d40.500094","openHours":"Çarşamba,07:00 - 20:00; Perşembe,07:00 - 20:00; Cuma,07:00 - 20:00; Cumartesi,08:00 - 20:00; Pazar,08:00 - 20:00; Pazartesi,07:00 - 20:00; Salı,07:00 - 20:00.","category":"Matbaa","rating":"5,0"},{"name":"Halı saha Yapan Firmalar","address":"Yenişehir Mahallesi Tuma Pasajı No 7, Buket sokak, 12000 Merkez/Bingöl","website":"halisahayapanfirmalar.com","tel":"0542 733 58 29","mapsUrl":"https://www.google.com/maps/place/Hal%C4%B1+saha+Yapan+Firmalar/@38.8853464,40.498291,14z/data=!4m8!1m2!2m1!1sajans!3m4!1s0x4073cf92a78a6e5d:0x7c15d34c573bd804!8m2!3d38.88388!4d40.494098","openHours":"Çarşamba,07:00 - 00:30; Perşembe,07:00 - 00:30; Cuma,07:00 - 00:30; Cumartesi,07:00 - 00:30; Pazar,07:00 - 00:30; Pazartesi,07:00 - 00:30; Salı,07:00 - 00:30.","category":"Futbol sahası","rating":"5,0"},{"name":"Fırat Kalkınma Ajansı","address":"İnönü Mahallesi Kültür Caddesi No : 72 Kahraman Tatar İş merkezi Kat : 1, 12000 Merkez/Bingöl","website":"fka.gov.tr","tel":"(0426) 213 57 55","mapsUrl":"https://www.google.com/maps/place/F%C4%B1rat+Kalk%C4%B1nma+Ajans%C4%B1/@38.8853464,40.498291,14z/data=!4m8!1m2!2m1!1sajans!3m4!1s0x4073cf0cd444c61f:0x1f47f2c9dc89ceb6!8m2!3d38.8862411!4d40.4973535","openHours":"Çarşamba,08:00 - 18:00; Perşembe,08:00 - 18:00; Cuma,08:00 - 18:00; Cumartesi,Kapalı; Pazar,Kapalı; Pazartesi,08:00 - 18:00; Salı,08:00 - 18:00.","category":"Devlet Dairesi","rating":" "},{"name":"Fırat Kalkınma Ajansı Bingöl Ofisi","address":"Kültür Cad. Bingöl Ticaret Ve Sanayi Odası Hizmet Binası K:1, Bingöl Merkez, Bingöl","website":" ","tel":"(0426) 213 57 55","mapsUrl":"https://www.google.com/maps/place/F%C4%B1rat+Kalk%C4%B1nma+Ajans%C4%B1+Bing%C3%B6l+Ofisi/@38.8853464,40.498291,14z/data=!4m8!1m2!2m1!1sajans!3m4!1s0x4073cf938803bdcb:0xb747a63e1c1b8d90!8m2!3d38.885592!4d40.501425","openHours":" ","category":" ","rating":"4,5"},{"name":"Asyam Tur","address":"Yenişehir, Genç Cd. 60/A, 12000 Bingöl Merkez/Bingöl","website":" ","tel":"0543 242 66 30","mapsUrl":"https://www.google.com/maps/place/Asyam+Tur/@38.8853464,40.498291,14z/data=!4m8!1m2!2m1!1sajans!3m4!1s0x4073cf932eb1e0dd:0x9a640ed31b303b59!8m2!3d38.8847537!4d40.4976734","openHours":"Çarşamba,07:30 - 21:00; Perşembe,07:30 - 21:00; Cuma,07:30 - 21:00; Cumartesi,07:30 - 21:00; Pazar,07:30 - 21:00; Pazartesi,07:30 - 21:00; Salı,07:30 - 21:00.","category":"Turlar","rating":"5,0"},{"name":"Bingöl Bilet","address":"Yenişehir Mah. Özgürlük Cad. Sefa Sok. Elif Apt Altı (Müftülük, Ara Sk., 12000 Bingöl","website":" ","tel":"0542 213 97 67","mapsUrl":"https://www.google.com/maps/place/Bing%C3%B6l+Bilet/@38.8853464,40.498291,14z/data=!4m8!1m2!2m1!1sajans!3m4!1s0x4073cf5423ec81c7:0xf68877cde3c35204!8m2!3d38.8829168!4d40.4953684","openHours":" ","category":"Seyahat Acentesi","rating":" "},{"name":"Ali Tarhan Sigorta Ltd. Şti","address":"6 2 Aybek İşhanı, Genç Cd., 12000","website":" ","tel":"(0426) 214 44 33","mapsUrl":"https://www.google.com/maps/place/Ali+Tarhan+Sigorta+Ltd.+%C5%9Eti/@38.8853464,40.498291,14z/data=!4m8!1m2!2m1!1sajans!3m4!1s0x4073cf94d4235681:0x79c1950f640c3621!8m2!3d38.8854241!4d40.4968174","openHours":"Çarşamba,24 saat açık; Perşembe,24 saat açık; Cuma,24 saat açık; Cumartesi,24 saat açık; Pazar,24 saat açık; Pazartesi,24 saat açık; Salı,24 saat açık.","category":"Sigorta Acentesi","rating":" "},{"name":"AVEM SİGORTA","address":"İNÖNÜ MAHALLESİ KÜLTÜR CADDESİ KAHRAMAN TATAR İŞ MERKEZİ KAT:3, 12000 MERKEZ/Bingöl","website":"avemsigorta.com.tr","tel":"0546 214 19 14","mapsUrl":"https://www.google.com/maps/place/AVEM+S%C4%B0GORTA/@38.8853464,40.498291,14z/data=!4m8!1m2!2m1!1sajans!3m4!1s0x4073cf2e03efee1f:0x76ba7c229eb42dcd!8m2!3d38.886272!4d40.497324","openHours":"Çarşamba,08:00 - 18:30; Perşembe,08:00 - 18:30; Cuma,08:00 - 18:30; Cumartesi,09:00 - 18:00; Pazar,Kapalı; Pazartesi,08:00 - 18:30; Salı,08:00 - 18:30.","category":"Sigorta Acentesi","rating":" "},{"name":"Bingöl gezi kulubü / FİGARO TURİZM","address":"Recep Tayyip Erdoğan Mah. Abdülkadir Konukoğlu Sk. 7. Ada 3 Blok Kat 4 No 14, 12000 Merkez/Bingöl","website":"business.site","tel":"0543 660 67 75","mapsUrl":"https://www.google.com/maps/place/Bing%C3%B6l+gezi+kulub%C3%BC+%2F+F%C4%B0GARO+TUR%C4%B0ZM/@38.8853464,40.498291,14z/data=!4m8!1m2!2m1!1sajans!3m4!1s0x4073cf99d67b0947:0xd147e80d1bf79b33!8m2!3d38.9059541!4d40.4967415","openHours":"Çarşamba,09:00 - 17:00; Perşembe,09:00 - 17:00; Cuma,09:00 - 17:00; Cumartesi,10:00 - 16:00; Pazar,Kapalı; Pazartesi,09:00 - 17:00; Salı,09:00 - 17:00.","category":"Seyahat Acentesi","rating":"5,0"},{"name":"Serinbayır Turizm","address":"Yeni Şehir Mahallesi Genç Caddesi, Gülkaya İşhanı Giriş Kat, 12100 Merkez/Bingöl","website":" ","tel":"0546 614 22 99","mapsUrl":"https://www.google.com/maps/place/Serinbay%C4%B1r+Turizm/@38.8853464,40.498291,14z/data=!4m8!1m2!2m1!1sajans!3m4!1s0x4073cf932cfef68d:0x37cc8dc36085d5e7!8m2!3d38.885441!4d40.496295","openHours":"Çarşamba,09:00 - 19:00; Perşembe,09:00 - 19:00; Cuma,09:00 - 19:00; Cumartesi,09:00 - 19:00; Pazar,Kapalı; Pazartesi,09:00 - 19:00; Salı,09:00 - 19:00.","category":"Seyahat Acentesi","rating":"5,0"},{"name":"GUİDER EMLAK","address":"Yenişehir, Yeşim Sk. NO:16/B, 12000 Merkez/Bingöl","website":"guideremlak.com","tel":"0505 784 62 77","mapsUrl":"https://www.google.com/maps/place/GU%C4%B0DER+EMLAK/@38.8853464,40.498291,14z/data=!4m8!1m2!2m1!1sajans!3m4!1s0x4073cfecd68b2e05:0xd20fa608883d88e8!8m2!3d38.8858863!4d40.4954682","openHours":" ","category":"Emlak Bürosu","rating":"5,0"},{"name":"LONDON GAYRİMENLUL EMLAK BİNGÖL / UYDUKENT","address":"Şehit Mustafa Gündoğdu, Begüm Sk. No:16, 12000, 12010 Bingöl Merkez/Bingöl","website":" ","tel":"0544 502 21 12","mapsUrl":"https://www.google.com/maps/place/LONDON+GAYR%C4%B0MENLUL+EMLAK+B%C4%B0NG%C3%96L+%2F+UYDUKENT/@38.8853464,40.498291,14z/data=!4m8!1m2!2m1!1sajans!3m4!1s0x4073cfc388ef1b8f:0x896bdd3f85e3942c!8m2!3d38.9051553!4d40.501113","openHours":" ","category":"Emlak Bürosu","rating":"4,4"},{"name":"Bingöl Berka Rezidans& Apart","address":"Şehit Mustafa Gündoğdu, Narin Sk. No:6, 12000 Bingöl Merkez/Bingöl","website":" ","tel":"0534 304 39 77","mapsUrl":"https://www.google.com/maps/place/Bing%C3%B6l+Berka+Rezidans%26+Apart/@38.8853464,40.498291,14z/data=!4m11!1m2!2m1!1sajans!3m7!1s0x4073cfda1b0e2d5f:0xc0bb1e6cc8999150!5m2!4m1!1i2!8m2!3d38.9012255!4d40.4962995","openHours":" ","category":" ","rating":"3,5"},{"name":"Axa Sigorta","address":"Yenişehir, Kutluay Sk., 12000 Bingöl Merkez/Bingöl","website":" ","tel":" ","mapsUrl":"https://www.google.com/maps/place/Axa+Sigorta/@38.8853464,40.498291,14z/data=!4m8!1m2!2m1!1sajans!3m4!1s0x4073cf932a49c325:0x6fe698b58be5fbc!8m2!3d38.885592!4d40.496089","openHours":" ","category":"Sigorta Acentesi","rating":"5,0"},{"name":"Bingöl Avis","address":"Recep Tayyip Erdoğan, Bedri Tuğ Cd. No:1, 12000 Bingöl Merkez/Bingöl","website":"avis.com.tr","tel":"0534 559 69 68","mapsUrl":"https://www.google.com/maps/place/Bing%C3%B6l+Avis/@38.8853464,40.498291,14z/data=!4m8!1m2!2m1!1sajans!3m4!1s0x4073cf6c1648e4bd:0x8b916761de540b95!8m2!3d38.9019056!4d40.4954063","openHours":" ","category":"Araba Kiralama Şirketi","rating":"5,0"},{"name":"yiğit oto kiralama","address":"İnönü, Kültür Cd. 91-69 D:91-69, 12000 Bingöl Merkez/Bingöl","website":" ","tel":"0544 448 33 91","mapsUrl":"https://www.google.com/maps/place/yi%C4%9Fit+oto+kiralama/@38.8853464,40.498291,14z/data=!4m8!1m2!2m1!1sajans!3m4!1s0x4073cf8014d8c24f:0x4670398cbbc685c8!8m2!3d38.885702!4d40.4997676","openHours":" ","category":"Araba Kiralama Şirketi","rating":" "},{"name":"Taç Ajans","address":"Cumhuriyet Caddesi Yurttaş İşhanı Kat:3 No:16, 25100 Yakutiye/Erzurum","website":"tacajans.com","tel":"0532 362 37 55","mapsUrl":"https://www.google.com/maps/place/Ta%C3%A7+Ajans/@39.905836,41.2543565,14z/data=!4m8!1m2!2m1!1sajans!3m4!1s0x406e5f0e3af96f1b:0x58488ebfb78eb937!8m2!3d39.905836!4d41.271866","openHours":"Çarşamba,09:00 - 18:30; Perşembe,09:00 - 18:30; Cuma,09:00 - 18:30; Cumartesi,09:00 - 18:30; Pazar,09:00 - 18:30; Pazartesi,09:00 - 18:30; Salı,09:00 - 18:30.","category":"Reklam Ajansı","rating":"5,0"},{"name":"Mov Reklam Ajansı","address":"Yeni, 12700 Solhan/Bingöl","website":"movcreative.com.tr","tel":"0553 531 87 77","mapsUrl":"https://www.google.com/maps/place/Mov+Reklam+Ajans%C4%B1/@38.9651593,41.0336381,14z/data=!4m8!1m2!2m1!1sajans!3m4!1s0x407245dc2e500149:0x2550a144c2ecba22!8m2!3d38.9651593!4d41.0511476","openHours":"Çarşamba,09:30 - 18:30; Perşembe,09:30 - 18:30; Cuma,09:30 - 18:30; Cumartesi,09:30 - 18:30; Pazar,Kapalı; Pazartesi,09:30 - 18:30; Salı,09:30 - 18:30.","category":"Reklam Ajansı","rating":" "},{"name":"Ankara Sigorta","address":"Yenişehir, Hastane Cad. No:34, 12000 Bingöl Merkez/Bingöl","website":"ankarasigorta.com.tr","tel":"(0426) 213 74 00","mapsUrl":"https://www.google.com/maps/place/Ankara+Sigorta/@38.8853464,40.498291,14z/data=!4m8!1m2!2m1!1sajans!3m4!1s0x4073cf928530e6f1:0x5d393d32e0239732!8m2!3d38.8836885!4d40.4958267","openHours":" ","category":"Sigorta Acentesi","rating":" "},{"name":"Eda Gayrimenkul","address":"Yenişehir, Genç Cad. Aybek İş Hanı No:2 D:7, 12000 Bingöl Merkez/Bingöl","website":"sahibinden.com","tel":"(0426) 213 52 22","mapsUrl":"https://www.google.com/maps/place/Eda+Gayrimenkul/@38.8853464,40.498291,14z/data=!4m8!1m2!2m1!1sajans!3m4!1s0x4073cf903555dab1:0xbede550ff5551314!8m2!3d38.881632!4d40.5024771","openHours":" ","category":"Emlak Bürosu","rating":"3,5"},{"name":"ALMİRA BİNGÖL GAYRİMENKUL","address":"Yenişehir, Özgürlük Cd., 12000 Bingöl Merkez/Bingöl","website":"facebook.com","tel":"0532 447 49 95","mapsUrl":"https://www.google.com/maps/place/ALM%C4%B0RA+B%C4%B0NG%C3%96L+GAYR%C4%B0MENKUL/@38.8853464,40.498291,14z/data=!4m8!1m2!2m1!1sajans!3m4!1s0x4073cf8d9c4f0a5b:0x19c4663d1ae08195!8m2!3d38.882615!4d40.495379","openHours":"Çarşamba,08:00 - 21:00; Perşembe,08:00 - 21:00; Cuma,08:00 - 21:00; Cumartesi,08:00 - 21:00; Pazar,08:00 - 21:00; Pazartesi,08:00 - 21:00; Salı,08:00 - 21:00.","category":"Ticari Emlak Acentesi","rating":"3,3"},{"name":"Halk oto kiralama bingöl","address":"YENİŞEHİR MAH. ÖZGÜRLÜK CAD. NO.7.C, 12000 MERKEZ/Bingöl","website":"business.site","tel":"0532 175 21 85","mapsUrl":"https://www.google.com/maps/place/Halk+oto+kiralama+bing%C3%B6l/@38.8853464,40.498291,14z/data=!4m8!1m2!2m1!1sajans!3m4!1s0x4073cf8d9c67f729:0x9577248446e417c8!8m2!3d38.8825944!4d40.495442","openHours":"Çarşamba,05:00 - 23:30; Perşembe,05:00 - 23:30; Cuma,05:00 - 23:30; Cumartesi,05:00 - 23:30; Pazar,05:00 - 23:30; Pazartesi,05:00 - 23:30; Salı,05:00 - 23:30.","category":"Araba Kiralama Şirketi","rating":"5,0"},{"name":"Mandalina Reklam Ajansı","address":"Lalapaşa, İlay Apt Altı No:32/A, Çaykara Cd., 25100 Yakutiye/Erzurum","website":" ","tel":"0541 442 83 33","mapsUrl":"https://www.google.com/maps/place/Mandalina+Reklam+Ajans%C4%B1/@39.910216,41.2497325,14z/data=!4m8!1m2!2m1!1sajans!3m4!1s0x406e5f1447713449:0x15e44cdfa4d1cb5!8m2!3d39.910216!4d41.267242","openHours":"Çarşamba,08:00 - 20:00; Perşembe,08:00 - 20:00; Cuma,08:00 - 20:00; Cumartesi,08:00 - 20:00; Pazar,Kapalı; Pazartesi,08:00 - 20:00; Salı,08:00 - 20:00.","category":"Reklam Ajansı","rating":"4,0"},{"name":"Pegasus","address":"Yenişehir, İnönü Cd., 12000 Bingöl Merkez/Bingöl","website":"flypgs.com","tel":" ","mapsUrl":"https://www.google.com/maps/place/Pegasus/@38.8853464,40.498291,14z/data=!4m8!1m2!2m1!1sajans!3m4!1s0x4073cf92d9b81969:0xa7a06ae7a49bf082!8m2!3d38.8852051!4d40.4962799","openHours":" ","category":"Seyahat Acentesi","rating":"4,0"},{"name":"has ser emlak bingöl","address":"yavuz selim cad. beşyol no:1/b alimoğlu apt. bingöl, 12000 merkez/Bingöl","website":"facebook.com","tel":"0539 367 88 87","mapsUrl":"https://www.google.com/maps/place/has+ser+emlak+bing%C3%B6l/@38.8853464,40.498291,14z/data=!4m8!1m2!2m1!1sajans!3m4!1s0x4073cf8d31d87917:0x46d660de16ee4cfd!8m2!3d38.883078!4d40.491977","openHours":"Çarşamba,08:00 - 20:00; Perşembe,08:00 - 20:00; Cuma,08:00 - 20:00; Cumartesi,08:00 - 20:00; Pazar,Kapalı; Pazartesi,08:00 - 20:00; Salı,08:00 - 20:00.","category":"Ticari Emlak Acentesi","rating":"4,0"},{"name":"Bingöl Otobüs Terminalı","address":"Merkez, 12000 Küçüktekören/Bingöl Merkez/Bingöl","website":" ","tel":" ","mapsUrl":"https://www.google.com/maps/place/Bing%C3%B6l+Otob%C3%BCs+Terminal%C4%B1/@38.8853464,40.498291,14z/data=!4m8!1m2!2m1!1sajans!3m4!1s0x4073cfb7dc255117:0xe4151c5924418c47!8m2!3d38.8809301!4d40.5046029","openHours":" ","category":"Otobüs Bileti Acentesi","rating":"1,0"},{"name":"Auto PLUSS BİNGÖL OTO KİRALAMA","address":"Şehit Mustafa Gündoğdu, Mahallesi, İnsaf Sk. No:1, 12000 MERKEZ/Bingöl","website":" ","tel":"0552 512 00 12","mapsUrl":"https://www.google.com/maps/place/Auto+PLUSS+B%C4%B0NG%C3%96L+OTO+K%C4%B0RALAMA/@38.8853464,40.498291,14z/data=!4m8!1m2!2m1!1sajans!3m4!1s0x4073cf3aa58dc3af:0x98743c4f9d4f8629!8m2!3d38.9010736!4d40.4946171","openHours":"Çarşamba,24 saat açık; Perşembe,24 saat açık; Cuma,24 saat açık; Cumartesi,24 saat açık; Pazar,24 saat açık; Pazartesi,24 saat açık; Salı,24 saat açık.","category":"Araba Kiralama Şirketi","rating":"5,0"},{"name":"Güneş Sigorta","address":"Yenişehir, Genç Cad. Bingöl İş Merkezi No:6, 12000 Bingöl Merkez/Bingöl","website":"gunessigorta.com.tr","tel":"(0426) 213 62 32","mapsUrl":"https://www.google.com/maps/place/G%C3%BCne%C5%9F+Sigorta/@38.8853464,40.498291,14z/data=!4m8!1m2!2m1!1sajans!3m4!1s0x4073cf90366db305:0xb2c1f7629d0e7096!8m2!3d38.8814345!4d40.5027601","openHours":" ","category":"Sigorta Acentesi","rating":"3,0"},{"name":"Türkiye İş Kurumu","address":"İnönü, Nizam Sk. No:1, 12000 Bingöl Merkez/Bingöl","website":"bingol.iskur.gov.tr","tel":"(0426) 213 11 20","mapsUrl":"https://www.google.com/maps/place/T%C3%BCrkiye+%C4%B0%C5%9F+Kurumu/@38.8853464,40.498291,14z/data=!4m8!1m2!2m1!1sajans!3m4!1s0x4073cf94742957ed:0x7cd1660ab073b52b!8m2!3d38.8839528!4d40.506863","openHours":"Çarşamba,08:00 - 17:00; Perşembe,08:00 - 17:00; Cuma,08:00 - 17:00; Cumartesi,Kapalı; Pazar,Kapalı; Pazartesi,08:00 - 17:00; Salı,08:00 - 17:00.","category":"İş ve İşçi Bulma Kurumu","rating":"3,5"}]