[{"name":"En 1 Yapı Market","address":"Sancaklar, Akçakoca Yolu Üzeri No:83, 81100 Düzce Merkez/Düzce","website":"en1.com.tr","tel":"(0380) 524 88 89","mapsUrl":"https://www.google.com/maps/place/En+1+Yap%C4%B1+Market/@40.843849,31.15654,14z/data=!4m8!1m2!2m1!1syap%C4%B1+market!3m4!1s0x409d0aa9e4f2d2dd:0x9d4af4008860b2ee!8m2!3d40.8541661!4d31.1655386","openHours":"Salı,08:00 - 20:00; Çarşamba,08:00 - 20:00; Perşembe,08:00 - 20:00; Cuma,08:00 - 20:00; Cumartesi,08:00 - 20:00; Pazar,09:00 - 19:00; Pazartesi,08:00 - 20:00.","category":"Yapı Malzemeleri Mağazası","rating":"4,4"},{"name":"Yıltaş Yapı Market","address":"Fevzi çakmak mh. D-100 Karayolu Üzeri No:221, 81100 Düzce Merkez/Düzce","website":"yiltas.com","tel":"444 4 095","mapsUrl":"https://www.google.com/maps/place/Y%C4%B1lta%C5%9F+Yap%C4%B1+Market/@40.823976,31.1786196,14z/data=!4m8!1m2!2m1!1syap%C4%B1+market!3m4!1s0x409d74deefccd801:0xca75ac399dd425ed!8m2!3d40.823976!4d31.1961291","openHours":"Salı,08:30 - 18:30; Çarşamba,08:30 - 18:30; Perşembe,08:30 - 18:30; Cuma,08:30 - 18:30; Cumartesi,08:30 - 18:30; Pazar,10:00 - 18:30; Pazartesi,08:30 - 18:30.","category":"Yapı Malzemeleri Mağazası","rating":"4,3"},{"name":"Kaleyap Yapı Market | Marshall Bayi","address":"Aziziye, Şht. Ramazan Gel Cd. No:34, 81010 Düzce Merkez/Düzce","website":" ","tel":" ","mapsUrl":"https://www.google.com/maps/place/Kaleyap+Yap%C4%B1+Market+%7C+Marshall+Bayi/@40.8438464,31.15654,14z/data=!4m8!1m2!2m1!1syap%C4%B1+market!3m4!1s0x409d9fe92c7a3fe7:0x271629668d435878!8m2!3d40.8445023!4d31.1328808","openHours":"Salı,08:00 - 20:00; Çarşamba,08:00 - 20:00; Perşembe,08:00 - 20:00; Cuma,08:00 - 20:00; Cumartesi,08:00 - 20:00; Pazar,10:30 - 18:30; Pazartesi,08:00 - 20:00.","category":"Nalbur","rating":"5,0"},{"name":"Tekzen","address":"Yüksel İş Merkezi Burhaniye Mah. D-100 Karayolu Üzeri, Çoban Mevkii No:281/A, 81010 Merkez","website":"tekzen.com.tr","tel":"(0380) 514 36 84","mapsUrl":"https://www.google.com/maps/place/Tekzen/@40.8438464,31.15654,14z/data=!4m8!1m2!2m1!1syap%C4%B1+market!3m4!1s0x409d755235cdb1fd:0x3c55a51867347e92!8m2!3d40.8452047!4d31.1651695","openHours":"Salı,12:00 - 20:00; Çarşamba,12:00 - 20:00; Perşembe,12:00 - 20:00; Cuma,12:00 - 20:00; Cumartesi,12:00 - 20:00; Pazar,12:00 - 20:00; Pazartesi,12:00 - 20:00.","category":"Yapı Malzemeleri Mağazası","rating":"3,8"},{"name":"CEO3 YAPI MARKET","address":"Merkez, KOÇYAZI MAH. ZAHİD KEVSERİ BULVARI KORU 2 SİTESİ, 81100 Düzce","website":"ceo3yapi.business.site","tel":"(0380) 502 04 06","mapsUrl":"https://www.google.com/maps/place/CEO3+YAPI+MARKET/@40.8438464,31.15654,14z/data=!4m8!1m2!2m1!1syap%C4%B1+market!3m4!1s0x409d0aca9cc44c67:0xb787abe913f3a5c5!8m2!3d40.8446538!4d31.1851371","openHours":"Salı,08:00 - 18:00; Çarşamba,08:00 - 18:00; Perşembe,08:00 - 18:00; Cuma,08:00 - 18:00; Cumartesi,08:00 - 18:00; Pazar,08:00 - 18:00; Pazartesi,08:00 - 18:00.","category":"Yapı Malzemeleri Mağazası","rating":"4,5"},{"name":"CELFİ YAPI MARKET","address":"Merkez, 81100 Düzce Merkez/Düzce","website":"celfi.com.tr","tel":"0850 532 4401","mapsUrl":"https://www.google.com/maps/place/CELF%C4%B0+YAPI+MARKET/@40.8438464,31.15654,14z/data=!4m8!1m2!2m1!1syap%C4%B1+market!3m4!1s0x409d9f98f97b682b:0x2db7ffb58287a1af!8m2!3d40.8494931!4d31.1075799","openHours":"Salı,08:00 - 18:00; Çarşamba,08:00 - 18:00; Perşembe,08:00 - 18:00; Cuma,08:00 - 18:00; Cumartesi,08:00 - 18:00; Pazar,09:00 - 17:00; Pazartesi,08:00 - 18:00.","category":"Yapı Malzemeleri Mağazası","rating":"4,3"},{"name":"Çakmak Yapı Market","address":"Yeni, D-100 Karayolu Cad. No:372, 81600 Düzce Merkez/Düzce","website":"cakmakyapias.com","tel":"(0380) 524 88 88","mapsUrl":"https://www.google.com/maps/place/%C3%87akmak+Yap%C4%B1+Market/@40.8438464,31.15654,14z/data=!4m8!1m2!2m1!1syap%C4%B1+market!3m4!1s0x409d753800e27229:0x94afc4db4274be54!8m2!3d40.8482911!4d31.1541285","openHours":"Salı,08:00 - 19:00; Çarşamba,08:00 - 19:00; Perşembe,08:00 - 19:00; Cuma,08:00 - 19:00; Cumartesi,08:00 - 19:00; Pazar,Kapalı; Pazartesi,08:00 - 19:00.","category":"İnşaat Şirketi","rating":"4,4"},{"name":"Genç Karadeniz Yapı Market","address":"Zahid Kevseri Bulvarı No: 73/17, 81000 Merkez/Düzce","website":" ","tel":"0539 231 45 51","mapsUrl":"https://www.google.com/maps/place/Gen%C3%A7+Karadeniz+Yap%C4%B1+Market/@40.8438464,31.15654,14z/data=!4m8!1m2!2m1!1syap%C4%B1+market!3m4!1s0x409d0b651b400d93:0xf8ac2e101ce8373e!8m2!3d40.8467469!4d31.1886799","openHours":"Salı,08:00 - 19:00; Çarşamba,08:00 - 19:00; Perşembe,08:00 - 19:00; Cuma,08:00 - 19:00; Cumartesi,08:00 - 19:00; Pazar,10:00 - 19:00; Pazartesi,08:00 - 19:00.","category":"Yapı Malzemeleri Mağazası","rating":"4,8"},{"name":"Koçtaş","address":"Fatih D100 Yanyolu Karayolu Cad. No:446, D:C, 81030 Düzce Merkez/Düzce","website":"koctas.com.tr","tel":" ","mapsUrl":"https://www.google.com/maps/place/Ko%C3%A7ta%C5%9F/@40.8438464,31.15654,14z/data=!4m8!1m2!2m1!1syap%C4%B1+market!3m4!1s0x409d9fe27b10f723:0x86e1188dc74dc60b!8m2!3d40.8485013!4d31.1428505","openHours":" ","category":"Yapı Malzemeleri Mağazası","rating":"3,6"},{"name":"Bodapa Boya Yapı Malzemeleri Mobilya Aksesuarları Hırdavat Dağıtım Pazarlama","address":"Nusrettin, 219. Sk. No:8-12, 81010 Düzce Merkez/Düzce","website":"business.site","tel":"(0380) 514 15 30","mapsUrl":"https://www.google.com/maps/place/Bodapa+Boya+Yap%C4%B1+Malzemeleri+Mobilya+Aksesuarlar%C4%B1+H%C4%B1rdavat+Da%C4%9F%C4%B1t%C4%B1m+Pazarlama/@40.836321,31.1552545,14z/data=!4m8!1m2!2m1!1syap%C4%B1+market!3m4!1s0x409d7554ae360eff:0xe0ceff42316472fe!8m2!3d40.836321!4d31.172764","openHours":"Salı,07:45 - 17:30; Çarşamba,07:45 - 17:30; Perşembe,07:45 - 17:30; Cuma,07:45 - 17:30; Cumartesi,07:45 - 17:30; Pazar,Kapalı; Pazartesi,07:45 - 17:30.","category":"Toptancı","rating":"5,0"},{"name":"DASPLUS YAPI MARKETLERİ - DÜZCE ŞUBESİ","address":"Sancaklar, Akçakoca Karayolu Caddesi No:213/A, 81000 Merkez/Düzce","website":"dasplus.com","tel":"0850 303 8181","mapsUrl":"https://www.google.com/maps/place/DASPLUS+YAPI+MARKETLER%C4%B0+-+D%C3%9CZCE+%C5%9EUBES%C4%B0/@40.8438464,31.15654,14z/data=!4m8!1m2!2m1!1syap%C4%B1+market!3m4!1s0x409da12e467837cd:0x88ffab68c2cb0793!8m2!3d40.8723208!4d31.1688547","openHours":"Salı,08:00 - 18:00; Çarşamba,08:00 - 18:00; Perşembe,08:00 - 18:00; Cuma,08:00 - 18:00; Cumartesi,08:00 - 18:00; Pazar,Kapalı; Pazartesi,08:00 - 18:00.","category":"Yapı Malzemeleri Mağazası","rating":"4,2"},{"name":"Koçtaş Fix","address":"Fatih Mh, Rumeli Sk. No:446, 81030 Düzce Merkez/Düzce","website":"koctas.com.tr","tel":"(0380) 511 23 00","mapsUrl":"https://www.google.com/maps/place/Ko%C3%A7ta%C5%9F+Fix/@40.8438464,31.15654,14z/data=!4m8!1m2!2m1!1syap%C4%B1+market!3m4!1s0x409d9fafe2da6423:0x52f7012318d77f29!8m2!3d40.8488!4d31.1437","openHours":"Salı,10:00 - 21:00; Çarşamba,10:00 - 21:00; Perşembe,10:00 - 21:00; Cuma,10:00 - 21:00; Cumartesi,10:00 - 21:00; Pazar,10:00 - 21:00; Pazartesi,10:00 - 21:00.","category":"Yapı Malzemeleri Mağazası","rating":"3,4"},{"name":"Dinler Yapı Market","address":"Sancaklar, Düzce Akçakoca Yolu, 81100 Düzce Merkez/Düzce","website":" ","tel":" ","mapsUrl":"https://www.google.com/maps/place/Dinler+Yap%C4%B1+Market/@40.8438464,31.15654,14z/data=!4m8!1m2!2m1!1syap%C4%B1+market!3m4!1s0x409da008f459e333:0xfe21f80ef644413!8m2!3d40.859091!4d31.166694","openHours":"Salı,08:00 - 18:00; Çarşamba,08:00 - 18:00; Perşembe,08:00 - 18:00; Cuma,08:00 - 18:00; Cumartesi,08:00 - 18:00; Pazar,Kapalı; Pazartesi,08:00 - 18:00.","category":"Ev Eşyaları Mağazası","rating":"4,1"},{"name":"Akarsu Yapı Market","address":"Burhaniye, Atatürk Bulv. No:76, 81010 Düzce Merkez/Düzce","website":" ","tel":"(0380) 514 29 23","mapsUrl":"https://www.google.com/maps/place/Akarsu+Yap%C4%B1+Market/@40.8438464,31.15654,14z/data=!4m8!1m2!2m1!1syap%C4%B1+market!3m4!1s0x409d75504cacae31:0x3b9d80edc7a914b2!8m2!3d40.842384!4d31.16378","openHours":" ","category":" ","rating":" "},{"name":"YAZICILAR YAPI","address":"Azmimilli, Gazhane Cd. No:104, 81020 Düzce Merkez/Düzce","website":" ","tel":"(0380) 524 97 77","mapsUrl":"https://www.google.com/maps/place/YAZICILAR+YAPI/@40.8438464,31.15654,14z/data=!4m8!1m2!2m1!1syap%C4%B1+market!3m4!1s0x409d75407f05699f:0xe3ebd471170ce43f!8m2!3d40.8314636!4d31.1686145","openHours":"Salı,07:00 - 21:00; Çarşamba,07:00 - 21:00; Perşembe,07:00 - 21:00; Cuma,07:00 - 21:00; Cumartesi,07:00 - 21:00; Pazar,07:00 - 21:00; Pazartesi,07:00 - 21:00.","category":"Yapı Malzemeleri Mağazası","rating":" "},{"name":"Gösterişli Seramik","address":"Cedidiye Mah. Mimar Sinan Cad. Şehit Fethi No:19 Çay Mahallesi Yalçın Sokak Merkez, 81010 Düzce Merkez/Düzce","website":" ","tel":"(0380) 524 72 56","mapsUrl":"https://www.google.com/maps/place/G%C3%B6steri%C5%9Fli+Seramik/@40.8438464,31.15654,14z/data=!4m8!1m2!2m1!1syap%C4%B1+market!3m4!1s0x409d755e132a8fd7:0x3d94cba5bcee012a!8m2!3d40.8332998!4d31.1686056","openHours":"Salı,09:00 - 18:00; Çarşamba,09:00 - 18:00; Perşembe,09:00 - 18:00; Cuma,09:00 - 18:00; Cumartesi,09:00 - 15:00; Pazar,Kapalı; Pazartesi,09:00 - 18:00.","category":"Banyo Malzemeleri Mağazası","rating":"4,8"},{"name":"Umut Nalburiye","address":"Kültür, Kuyumcuzade Blv. No:5, 81600 Düzce Merkez/Düzce","website":" ","tel":"(0380) 514 96 64","mapsUrl":"https://www.google.com/maps/place/Umut+Nalburiye/@40.8438464,31.15654,14z/data=!4m8!1m2!2m1!1syap%C4%B1+market!3m4!1s0x409d75539c35f311:0x40a87a685d94b2f7!8m2!3d40.8470501!4d31.1520265","openHours":" ","category":"Nalbur","rating":" "},{"name":"varollar yapı&yakacak","address":"Azmimilli, Karakaya Sk. No:10, 81020 Düzce Merkez/Düzce","website":" ","tel":"(0380) 514 18 06","mapsUrl":"https://www.google.com/maps/place/varollar+yap%C4%B1%26yakacak/@40.8438464,31.15654,14z/data=!4m8!1m2!2m1!1syap%C4%B1+market!3m4!1s0x409d7543a769b091:0x39526a4f5135a960!8m2!3d40.834739!4d31.160949","openHours":" ","category":"Yapı Malzemeleri Mağazası","rating":"5,0"},{"name":"Çakmak Yapı","address":"Sancaklar, Akçakoca Karayolu No:83, 81000 Merkez/Düzce","website":"en1.com.tr","tel":"(0380) 524 88 89","mapsUrl":"https://www.google.com/maps/place/%C3%87akmak+Yap%C4%B1/@40.8438464,31.15654,14z/data=!4m8!1m2!2m1!1syap%C4%B1+market!3m4!1s0x409db1a3421d9179:0x4a5c4edca88c8dfa!8m2!3d40.8541175!4d31.1658334","openHours":"Salı,08:00 - 19:00; Çarşamba,08:00 - 19:00; Perşembe,08:00 - 19:00; Cuma,08:00 - 19:00; Cumartesi,08:00 - 19:00; Pazar,09:00 - 18:00; Pazartesi,08:00 - 19:00.","category":"Yapı Malzemeleri Tedarikçisi","rating":" "},{"name":"Sarıoğlu Hırdavat","address":"Şerefiye, Şehit Ruhsar Sok. No:52, 81010 Düzce Merkez/Düzce","website":" ","tel":"(0380) 514 11 48","mapsUrl":"https://www.google.com/maps/place/Sar%C4%B1o%C4%9Flu+H%C4%B1rdavat/@40.8438464,31.15654,14z/data=!4m9!1m3!2m2!1syap%C4%B1+market!6e6!3m4!1s0x409d756cd65298fb:0xda695708b07f07e6!8m2!3d40.8404897!4d31.1628381","openHours":" ","category":"Nalbur","rating":" "},{"name":"Kasapoğlu Yapı Malzemeleri","address":"Hamidiye, Akçakoca Cad. 26/B, 81030 Düzce Merkez/Düzce","website":" ","tel":"(0380) 524 69 84","mapsUrl":"https://www.google.com/maps/place/Kasapo%C4%9Flu+Yap%C4%B1+Malzemeleri/@40.8438464,31.15654,14z/data=!4m9!1m3!2m2!1syap%C4%B1+market!6e6!3m4!1s0x409d7556c9399ecf:0x9c4ab8c973ae83b0!8m2!3d40.8484544!4d31.1611646","openHours":" ","category":"Yapı Malzemeleri Tedarikçisi","rating":" "},{"name":"Tufanoğlu Yapı Market.","address":"Ulucami, Park Sk., 81750 Çilimli/Düzce","website":"business.site","tel":"(0380) 681 62 62","mapsUrl":"https://www.google.com/maps/place/Tufano%C4%9Flu+Yap%C4%B1+Market./@40.8936704,31.0310903,14z/data=!4m9!1m3!2m2!1syap%C4%B1+market!6e6!3m4!1s0x409da26de5aacd85:0xe89de326e9001869!8m2!3d40.8936704!4d31.0485998","openHours":"Salı,07:30 - 20:00; Çarşamba,07:30 - 20:00; Perşembe,08:00 - 20:00; Cuma,08:00 - 20:00; Cumartesi,08:00 - 20:00; Pazar,09:00 - 18:30; Pazartesi,07:30 - 20:00.","category":"Yapı Malzemeleri Mağazası","rating":"3,7"},{"name":"Akdoğan Yapı Market","address":"Burhaniye, Atatürk Blv. No:70/C, 81010 Düzce Merkez/Düzce","website":" ","tel":"(0380) 512 13 17","mapsUrl":"https://www.google.com/maps/place/Akdo%C4%9Fan+Yap%C4%B1+Market/@40.8438464,31.15654,14z/data=!4m9!1m3!2m2!1syap%C4%B1+market!6e6!3m4!1s0x409d75504cacae31:0xb5d5d0aee03c1181!8m2!3d40.842384!4d31.16378","openHours":" ","category":"İnşaat Firması","rating":" "},{"name":"Dinler Yapı Market","address":"Hamidiye, Akçakoca Yolu 1. Km. No:111, 81600 Düzce Merkez/Düzce","website":"dinleryapimarket.com.tr","tel":"(0380) 523 40 15","mapsUrl":"https://www.google.com/maps/place/Dinler+Yap%C4%B1+Market/@40.8438464,31.15654,14z/data=!4m9!1m3!2m2!1syap%C4%B1+market!6e6!3m4!1s0x409d755379d5c7b1:0x9aff378a8cd49e98!8m2!3d40.8468673!4d31.1648529","openHours":" ","category":" ","rating":"4,0"},{"name":"Özşen İnşaat /özşen Nalbur","address":"Hamidiye, Düzce - Akçakoca Yolu Yanyolu No:21, 81030 Düzce Merkez/Düzce","website":" ","tel":"(0380) 514 80 37","mapsUrl":"https://www.google.com/maps/place/%C3%96z%C5%9Fen+%C4%B0n%C5%9Faat+%2F%C3%B6z%C5%9Fen+Nalbur/@40.8438464,31.15654,14z/data=!4m9!1m3!2m2!1syap%C4%B1+market!6e6!3m4!1s0x409d7554a4517895:0x9bcc4dd686631dfc!8m2!3d40.848359!4d31.1648079","openHours":" ","category":"Yapı Malzemeleri Tedarikçisi","rating":" "},{"name":"Erdi Yapı Malzemeleri","address":"D-100 Karayolu Üzeri, 81100 Düzce Merkez/Düzce","website":"erdiyapi.com","tel":"(0380) 537 54 00","mapsUrl":"https://www.google.com/maps/place/Erdi+Yap%C4%B1+Malzemeleri/@40.8438464,31.15654,14z/data=!4m9!1m3!2m2!1syap%C4%B1+market!6e6!3m4!1s0x409d755708fbbd3f:0x8cfe06d2dae3b0ec!8m2!3d40.8477238!4d31.1098716","openHours":"Salı,08:00 - 18:00; Çarşamba,08:00 - 18:00; Perşembe,08:00 - 18:00; Cuma,08:00 - 18:00; Cumartesi,08:00 - 18:00; Pazar,Kapalı; Pazartesi,08:00 - 18:00.","category":"İnşaat Ekipmanı Tedarikçisi","rating":"4,3"},{"name":"Nur Yapı Düzce","address":"Burhaniye, No:, D100 Yanyolu No:269, 81010 Düzce Merkez/Düzce","website":"nuryapi.com.tr","tel":"0533 343 06 99","mapsUrl":"https://www.google.com/maps/place/Nur+Yap%C4%B1+D%C3%BCzce/@40.8438464,31.15654,14z/data=!4m9!1m3!2m2!1syap%C4%B1+market!6e6!3m4!1s0x409d75521ca69115:0x9d5395fe4be267e0!8m2!3d40.8440699!4d31.1671876","openHours":"Salı,09:00 - 17:30; Çarşamba,09:00 - 17:30; Perşembe,09:00 - 17:30; Cuma,09:00 - 17:30; Cumartesi,09:00 - 17:00; Pazar,Kapalı; Pazartesi,09:00 - 17:30.","category":"Yapı Malzemeleri Mağazası","rating":" "},{"name":"ÖZÜM YAPI İÇ MİMARLIK TADİLAT DEKORASYON A.Ş.","address":"Camikebir, Alemdar Sk. No:4, 81100 MERKEZ/Düzce","website":" ","tel":"(0380) 524 46 66","mapsUrl":"https://www.google.com/maps/place/%C3%96Z%C3%9CM+YAPI+%C4%B0%C3%87+M%C4%B0MARLIK+TAD%C4%B0LAT+DEKORASYON+A.%C5%9E./@40.8438464,31.15654,14z/data=!4m9!1m3!2m2!1syap%C4%B1+market!6e6!3m4!1s0x409d755b987e2237:0x692f1f05e43e2983!8m2!3d40.839459!4d31.157095","openHours":"Salı,08:00 - 20:00; Çarşamba,08:00 - 20:00; Perşembe,08:00 - 20:00; Cuma,08:00 - 20:00; Cumartesi,08:00 - 20:00; Pazar,10:00 - 15:00; Pazartesi,08:00 - 20:00.","category":"Yapı Malzemeleri Mağazası","rating":"5,0"},{"name":"Demir İnşaat","address":"Cedidiye, Mimar Sinan Cd. No:95/A, 81020 Düzce Merkez/Düzce","website":"dekoris.com.tr","tel":"(0380) 524 19 86","mapsUrl":"https://www.google.com/maps/place/Demir+%C4%B0n%C5%9Faat/@40.8438464,31.15654,14z/data=!4m9!1m3!2m2!1syap%C4%B1+market!6e6!3m4!1s0x409d756cda403a2b:0x31a0b1018fee502d!8m2!3d40.8332657!4d31.1698104","openHours":"Salı,08:00 - 19:30; Çarşamba,08:00 - 19:30; Perşembe,08:00 - 19:30; Cuma,08:00 - 19:30; Cumartesi,08:00 - 19:30; Pazar,Kapalı; Pazartesi,08:00 - 19:30.","category":"Yapı Malzemeleri Mağazası","rating":"4,6"},{"name":"Hak Yapı Market & İnşaat","address":"81100 Şaziye/Düzce Merkez/Düzce","website":" ","tel":"0555 268 03 32","mapsUrl":"https://www.google.com/maps/place/Hak+Yap%C4%B1+Market+%26+%C4%B0n%C5%9Faat/@40.8479422,31.0295618,14z/data=!4m9!1m3!2m2!1syap%C4%B1+market!6e6!3m4!1s0x409d9f280a19537f:0xe446f5f47166192a!8m2!3d40.8479422!4d31.0470713","openHours":"Salı,07:30 - 19:00; Çarşamba,07:30 - 19:00; Perşembe,07:30 - 19:00; Cuma,07:30 - 19:00; Cumartesi,07:30 - 19:00; Pazar,07:30 - 19:00; Pazartesi,07:30 - 19:00.","category":"Yapı Malzemeleri Mağazası","rating":"3,0"},{"name":"Ahşap Zemin Market","address":"Şerefiye, Necatibey Sk. No:12 C, 81100 Düzce Merkez/Düzce","website":"ahsapzeminmarket.com","tel":"(0380) 514 74 50","mapsUrl":"https://www.google.com/maps/place/Ah%C5%9Fap+Zemin+Market/@40.8438464,31.15654,14z/data=!4m9!1m3!2m2!1syap%C4%B1+market!6e6!3m4!1s0x409d75536ffea337:0xad7af0785cc18ef2!8m2!3d40.8406919!4d31.1615499","openHours":"Salı,08:00 - 20:00; Çarşamba,08:00 - 20:00; Perşembe,08:00 - 20:00; Cuma,08:00 - 20:00; Cumartesi,08:00 - 20:00; Pazar,13:00 - 14:00; Pazartesi,08:00 - 20:00.","category":"Zemin Döşeme Mağazası","rating":"5,0"},{"name":"ÇATANA YAPI MÜHENDİSLİK&İZOLASYON","address":"Beyciler, Düzce Akçakoca Yolu No:150, 81030 Düzce Merkez/Düzce","website":"catanayapi.com","tel":"(0380) 524 05 24","mapsUrl":"https://www.google.com/maps/place/%C3%87ATANA+YAPI+M%C3%9CHEND%C4%B0SL%C4%B0K%26%C4%B0ZOLASYON/@40.8438464,31.15654,14z/data=!4m9!1m3!2m2!1syap%C4%B1+market!6e6!3m4!1s0x409d7555feb6506b:0x17748cd40b9302b9!8m2!3d40.8630276!4d31.1679092","openHours":"Salı,09:00 - 18:00; Çarşamba,09:00 - 18:00; Perşembe,09:00 - 18:00; Cuma,09:00 - 18:00; Cumartesi,09:00 - 18:00; Pazar,Kapalı; Pazartesi,09:00 - 18:00.","category":"Yapı Malzemeleri Mağazası","rating":"4,6"},{"name":"GÜNEY TİCARET","address":"Karaca, D100 Yanyolu No:270, 81030 Düzce Merkez/Düzce","website":" ","tel":" ","mapsUrl":"https://www.google.com/maps/place/G%C3%9CNEY+T%C4%B0CARET/@40.8438464,31.15654,14z/data=!4m9!1m3!2m2!1syap%C4%B1+market!6e6!3m4!1s0x409d75520a2f465f:0xf17a355a31c93699!8m2!3d40.8442329!4d31.1683451","openHours":" ","category":"Yapı Malzemeleri Tedarikçisi","rating":" "},{"name":"esenmobaks Yapı Malzemeleri A.Ş","address":"Sancaklar, 83, Düzce Akçakoca Yolu, 81100 Düzce Merkez","website":" ","tel":"(0380) 514 99 60","mapsUrl":"https://www.google.com/maps/place/esenmobaks+Yap%C4%B1+Malzemeleri+A.%C5%9E/@40.8438464,31.15654,14z/data=!4m9!1m3!2m2!1syap%C4%B1+market!6e6!3m4!1s0x409d0aa9e660f065:0x3789c732f52e77c6!8m2!3d40.8547315!4d31.1658945","openHours":" ","category":"Alışveriş merkezi","rating":"4,4"},{"name":"ABANT Orman Ürünleri ve Yapı Malzemeleri","address":"Şerefiye Mh.D-100 Karayolu Üzeri No:299, 81100","website":"abantorman.com.tr","tel":"(0380) 525 19 05","mapsUrl":"https://www.google.com/maps/place/ABANT+Orman+%C3%9Cr%C3%BCnleri+ve+Yap%C4%B1+Malzemeleri/@40.8438464,31.15654,14z/data=!4m9!1m3!2m2!1syap%C4%B1+market!6e6!3m4!1s0x409d7553f4afb037:0x32c5f8316f92ba8b!8m2!3d40.8460054!4d31.1632247","openHours":" ","category":"Yapı Malzemeleri Mağazası","rating":"5,0"},{"name":"EVCİ YAPI MALZEMELERİ","address":"Merkez, HACIALİLER KÖYÜ 4.KM MERKEZ DÜZCE, 81100 Düzce","website":"evciyapi.com.tr","tel":"(0380) 551 22 21","mapsUrl":"https://www.google.com/maps/place/EVC%C4%B0+YAPI+MALZEMELER%C4%B0/@40.8438464,31.15654,14z/data=!4m9!1m3!2m2!1syap%C4%B1+market!6e6!3m4!1s0x409d74dcdb3e67cf:0x52c9cb9518e202ad!8m2!3d40.8211204!4d31.2040692","openHours":"Salı,08:30 - 18:00; Çarşamba,08:30 - 18:00; Perşembe,08:30 - 18:00; Cuma,08:30 - 18:00; Cumartesi,08:30 - 16:00; Pazar,Kapalı; Pazartesi,08:30 - 18:00.","category":"İnşaat Ekipmanı Tedarikçisi","rating":"4,6"},{"name":"Kurtuluş Yapı Dekorasyon","address":"Burhaniye, Atatürk Blv. No.16/A, 81100 Düzce Merkez/Düzce","website":"kurtulusticaret.business.site","tel":"(0380) 524 45 24","mapsUrl":"https://www.google.com/maps/place/Kurtulu%C5%9F+Yap%C4%B1+Dekorasyon/@40.8438464,31.15654,14z/data=!4m9!1m3!2m2!1syap%C4%B1+market!6e6!3m4!1s0x409d756c3fd756bd:0x16f2d8801f92fde9!8m2!3d40.8397947!4d31.163003","openHours":"Salı,08:00 - 19:00; Çarşamba,08:00 - 19:00; Perşembe,08:00 - 19:00; Cuma,08:00 - 19:00; Cumartesi,08:00 - 19:00; Pazar,11:00 - 19:00; Pazartesi,08:00 - 19:00.","category":"İç Dekorasyon Yüklenicisi","rating":"5,0"},{"name":"Akbulut Ticaret","address":"Uzun Mustafa, 865 Sk. No:29, 81010 Düzce Merkez/Düzce","website":"firmasec.com","tel":"0544 396 16 29","mapsUrl":"https://www.google.com/maps/place/Akbulut+Ticaret/@40.8438464,31.15654,14z/data=!4m9!1m3!2m2!1syap%C4%B1+market!6e6!3m4!1s0x409d9ffa95595231:0x6244c0b8e8d9269a!8m2!3d40.8474851!4d31.1429433","openHours":" ","category":"Nalbur","rating":"4,6"},{"name":"KILIÇLAR TİC. KOLL. ŞTİ.","address":"Cami Kebir Mahallesi Hafız Hasan efendi Caddesi, Büyük Cami Sokak No: 16/A, 81100","website":"business.site","tel":"(0380) 525 00 17","mapsUrl":"https://www.google.com/maps/place/KILI%C3%87LAR+T%C4%B0C.+KOLL.+%C5%9ET%C4%B0./@40.8438464,31.15654,14z/data=!4m9!1m3!2m2!1syap%C4%B1+market!6e6!3m4!1s0x409d755b3f29c8bd:0x546262da3da2419f!8m2!3d40.838095!4d31.159366","openHours":"Salı,07:30 - 19:00; Çarşamba,07:30 - 19:00; Perşembe,07:30 - 19:00; Cuma,07:30 - 19:00; Cumartesi,07:30 - 19:00; Pazar,10:00 - 17:00; Pazartesi,07:30 - 19:00.","category":"Boya Mağazası","rating":"3,0"}]