[{"name":"66 Perde","address":"Cedidiye, Kızılay Meydanı, Bayram Saniye Sk. No: 8/B, 81100 Düzce","website":"66perde.business.site","tel":"0554 585 72 74","mapsUrl":"https://www.google.com/maps/place/66+Perde/@40.843849,31.15654,14z/data=!4m8!1m2!2m1!1sperdeci!3m4!1s0x409d0aad4097d5d5:0x24068f0bb640ad8f!8m2!3d40.838147!4d31.159954","openHours":"Salı,09:00 - 19:00; Çarşamba,09:00 - 19:00; Perşembe,09:00 - 19:00; Cuma,09:00 - 19:00; Cumartesi,09:00 - 19:00; Pazar,Kapalı; Pazartesi,09:00 - 19:00.","category":"Perde Mağazası","rating":"5,0"},{"name":"Özçelik Perde","address":"Cedidiye, 5858 Sk. No:1/m, 81000 Merkez/Düzce","website":" ","tel":"0532 100 78 23","mapsUrl":"https://www.google.com/maps/place/%C3%96z%C3%A7elik+Perde/@40.8438464,31.15654,14z/data=!4m8!1m2!2m1!1sperdeci!3m4!1s0x409d755ad88f34a5:0xb76526be17643597!8m2!3d40.823834!4d31.175741","openHours":"Salı,07:00 - 11:13; Çarşamba,07:00 - 11:13; Perşembe,07:00 - 11:13; Cuma,07:00 - 11:13; Cumartesi,07:00 - 11:13; Pazar,07:00 - 11:13; Pazartesi,07:00 - 11:13.","category":"Perde Mağazası","rating":" "},{"name":"Kocaoğlu Perde","address":"Camikebir, İstanbul Cd. No:107, 81020 Merkez/Düzce Merkez/Düzce","website":" ","tel":"(0380) 523 37 58","mapsUrl":"https://www.google.com/maps/place/Kocao%C4%9Flu+Perde/@40.8401839,31.1280871,14z/data=!4m8!1m2!2m1!1sperdeci!3m4!1s0x409d9fe19246a8ff:0x4458fecf89a87569!8m2!3d40.8401839!4d31.1455966","openHours":"Salı,09:00 - 18:30; Çarşamba,09:00 - 18:30; Perşembe,09:00 - 18:30; Cuma,09:00 - 18:30; Cumartesi,09:00 - 18:30; Pazar,Kapalı; Pazartesi,09:00 - 18:30.","category":"Perde Mağazası","rating":"3,0"},{"name":"GÜL PERDE","address":"Kültür, Akçakoca Cd. No:15, 81600 Düzce Merkez/Düzce","website":" ","tel":"0554 867 35 10","mapsUrl":"https://www.google.com/maps/place/G%C3%9CL+PERDE/@40.8438464,31.15654,14z/data=!4m8!1m2!2m1!1sperdeci!3m4!1s0x409d755a607fe7b5:0x6f94627a71b9798e!8m2!3d40.8402074!4d31.1594344","openHours":"Salı,09:30 - 21:00; Çarşamba,09:30 - 21:00; Perşembe,09:30 - 21:00; Cuma,09:30 - 21:00; Cumartesi,09:30 - 21:00; Pazar,Kapalı; Pazartesi,09:30 - 21:00.","category":"Ev Eşyaları Mağazası","rating":" "},{"name":"Pırıltı Perde Evi","address":"Hamidiye, 1259. Sk. No: 5/a D:2, 81030 Düzce Merkez/Düzce","website":" ","tel":"0544 212 63 13","mapsUrl":"https://www.google.com/maps/place/P%C4%B1r%C4%B1lt%C4%B1+Perde+Evi/@40.8438464,31.15654,14z/data=!4m8!1m2!2m1!1sperdeci!3m4!1s0x409d0aaaec6765bb:0x2b8b63b8d33550ed!8m2!3d40.8510102!4d31.163322","openHours":"Salı,09:00 - 19:00; Çarşamba,09:00 - 19:00; Perşembe,09:00 - 19:00; Cuma,09:00 - 19:00; Cumartesi,09:00 - 19:00; Pazar,Kapalı; Pazartesi,09:00 - 19:00.","category":"Perde Mağazası","rating":"5,0"},{"name":"düzce perde","address":"Uzun Mustafa, Nezih Tütüncüoğlu Bulvari No:27, 81100 merkez/Düzce Merkez/Düzce","website":" ","tel":"(0380) 514 66 16","mapsUrl":"https://www.google.com/maps/place/d%C3%BCzce+perde/@40.8438464,31.15654,14z/data=!4m8!1m2!2m1!1sperdeci!3m4!1s0x409d9fe42611c2b5:0x289b0fbdd2e9e412!8m2!3d40.842725!4d31.140199","openHours":" ","category":"Mefruşatçı","rating":"4,0"},{"name":"Çetinkaya Perde Düzce","address":"Burhaniye, Atatürk Blv. 44/A, 81100 Düzce Merkez/Düzce","website":" ","tel":"(0380) 514 28 58","mapsUrl":"https://www.google.com/maps/place/%C3%87etinkaya+Perde+D%C3%BCzce/@40.8438464,31.15654,14z/data=!4m8!1m2!2m1!1sperdeci!3m4!1s0x409d75504ba6f58d:0xec7b30de198aed7a!8m2!3d40.842225!4d31.163789","openHours":"Salı,08:00 - 21:00; Çarşamba,08:00 - 21:00; Perşembe,08:00 - 21:00; Cuma,08:00 - 21:00; Cumartesi,08:00 - 21:00; Pazar,10:30 - 20:00; Pazartesi,08:00 - 21:00.","category":"Perde Mağazası","rating":"4,8"},{"name":"Velioğlu Perde","address":"İstanbul Caddesi Malatyalı Pasajı No:Z98/14, 81100 Merkez/Düzce","website":" ","tel":"(0380) 514 21 81","mapsUrl":"https://www.google.com/maps/place/Velio%C4%9Flu+Perde/@40.8438464,31.15654,14z/data=!4m8!1m2!2m1!1sperdeci!3m4!1s0x409d755a569a85f7:0x4baffc9796bc41aa!8m2!3d40.839609!4d31.158625","openHours":"Salı,09:00 - 20:00; Çarşamba,09:00 - 20:00; Perşembe,09:00 - 20:00; Cuma,09:00 - 20:00; Cumartesi,09:00 - 20:00; Pazar,Kapalı; Pazartesi,09:00 - 20:00.","category":"Perde Mağazası","rating":"5,0"},{"name":"Eda Perde","address":"Cedidiye Mah Mimar Sinan Cad, Necip Güney Sk. No:15, 81010 Merkez/Düzce","website":" ","tel":"(0380) 514 84 24","mapsUrl":"https://www.google.com/maps/place/Eda+Perde/@40.8438464,31.15654,14z/data=!4m8!1m2!2m1!1sperdeci!3m4!1s0x409d755361880a6d:0x220b1b8e9334ebdc!8m2!3d40.837066!4d31.1613134","openHours":"Salı,09:00 - 19:00; Çarşamba,09:00 - 19:00; Perşembe,09:00 - 19:00; Cuma,09:00 - 19:00; Cumartesi,09:00 - 19:00; Pazar,Kapalı; Pazartesi,09:00 - 19:00.","category":"Kumaş Mağazası","rating":"4,3"},{"name":"Beyaz Perde Tasarım Evi Düzce Merkez","address":"Kültür, Çamlı Sk. No:2, 81600 Düzce Merkez/Düzce","website":" ","tel":"0539 791 67 25","mapsUrl":"https://www.google.com/maps/place/Beyaz+Perde+Tasar%C4%B1m+Evi+D%C3%BCzce+Merkez/@40.8438464,31.15654,14z/data=!4m8!1m2!2m1!1sperdeci!3m4!1s0x409d7558a5410299:0xeca5e6e025599f5e!8m2!3d40.840608!4d31.1491458","openHours":" ","category":"Ev Eşyaları Mağazası","rating":"5,0"},{"name":"ELİF PERDE","address":"Şerefiye, a, Atatürk Blv. No:13, 81010 Düzce Merkez/Düzce","website":"tikla.com.tr","tel":"(0380) 524 61 44","mapsUrl":"https://www.google.com/maps/place/EL%C4%B0F+PERDE/@40.8438464,31.15654,14z/data=!4m8!1m2!2m1!1sperdeci!3m4!1s0x409d755ab32295eb:0x5cc1e74f86d67d75!8m2!3d40.839701!4d31.162782","openHours":"Salı,08:00 - 20:30; Çarşamba,08:00 - 20:30; Perşembe,08:00 - 20:30; Cuma,08:00 - 20:30; Cumartesi,08:00 - 20:30; Pazar,Kapalı; Pazartesi,08:00 - 20:30.","category":"Ev Eşyaları Mağazası","rating":"5,0"},{"name":"www.duzceperde.net","address":"Aziziye, Nezih Tütüncüoğlu Bulvari27/b, 81010 Düzce Merkez/Düzce","website":"duzceperde.net","tel":"(0380) 514 66 16","mapsUrl":"https://www.google.com/maps/place/www.duzceperde.net/@40.8438464,31.15654,14z/data=!4m8!1m2!2m1!1sperdeci!3m4!1s0x409d9fe67e503dc7:0x39111bd49f4d7ce0!8m2!3d40.8441117!4d31.141001","openHours":" ","category":" ","rating":" "},{"name":"Gündoğdular Perde","address":"Cedidiye, Kızılay Meydanı No:7, 81020 Düzce Merkez/Düzce","website":" ","tel":"(0380) 512 22 22","mapsUrl":"https://www.google.com/maps/place/G%C3%BCndo%C4%9Fdular+Perde/@40.8438464,31.15654,14z/data=!4m8!1m2!2m1!1sperdeci!3m4!1s0x409d755b2c306db9:0xceaadddf82b38d14!8m2!3d40.838308!4d31.160678","openHours":"Salı,09:00 - 20:30; Çarşamba,09:00 - 20:30; Perşembe,09:00 - 20:30; Cuma,09:00 - 20:30; Cumartesi,09:00 - 20:30; Pazar,13:00 - 18:00; Pazartesi,09:00 - 20:30.","category":"Mobilya mağazası","rating":"4,1"},{"name":"LÛLÛ PERDE","address":"Burhaniye, Atatürk Blv. No:62, 81010 Düzce Merkez/Düzce","website":" ","tel":"0544 521 81 81","mapsUrl":"https://www.google.com/maps/place/L%C3%9BL%C3%9B+PERDE/@40.8438464,31.15654,14z/data=!4m8!1m2!2m1!1sperdeci!3m4!1s0x409d7551a25f1f35:0x5253005174d68add!8m2!3d40.843313!4d31.1642208","openHours":"Salı,09:00 - 20:00; Çarşamba,09:00 - 20:00; Perşembe,09:00 - 20:00; Cuma,09:00 - 20:00; Cumartesi,09:00 - 20:00; Pazar,09:00 - 20:00; Pazartesi,09:00 - 20:00.","category":"Perde Mağazası","rating":"4,9"},{"name":"Moda perde ve perde temizlik hizmetleri","address":"Yeni, Kırklar Sk. No:11, 81600 Düzce Merkez/Düzce","website":" ","tel":"0543 460 69 23","mapsUrl":"https://www.google.com/maps/place/Moda+perde+ve+perde+temizlik+hizmetleri/@40.8438464,31.15654,14z/data=!4m8!1m2!2m1!1sperdeci!3m4!1s0x409d9f33d33c3fb7:0x34445af098de44e6!8m2!3d40.8493316!4d31.147339","openHours":"Salı,24 saat açık; Çarşamba,24 saat açık; Perşembe,24 saat açık; Cuma,24 saat açık; Cumartesi,24 saat açık; Pazar,Kapalı; Pazartesi,09:00 - 19:00.","category":"Perde Mağazası","rating":" "},{"name":"Sevdim Perde","address":"Azmimilli, Cevdet Komit Cd. No:22, 81100 Merkez/Düzce","website":"tum-saatleri.com","tel":"0530 432 08 81","mapsUrl":"https://www.google.com/maps/place/Sevdim+Perde/@40.8438464,31.15654,14z/data=!4m8!1m2!2m1!1sperdeci!3m4!1s0x409d75c986e09009:0x3fbdc977a403045c!8m2!3d40.833418!4d31.158709","openHours":"Salı,08:30 - 21:30; Çarşamba,08:30 - 21:30; Perşembe,08:30 - 21:30; Cuma,08:30 - 21:30; Cumartesi,08:30 - 21:30; Pazar,08:30 - 21:30; Pazartesi,08:30 - 21:30.","category":"Perde Mağazası","rating":"5,0"},{"name":"MURAT PERDE HALI","address":"Burhaniye, 30, Atatürk Blv., 81010 Düzce Merkez","website":"muratperde.com","tel":"(0380) 523 00 58","mapsUrl":"https://www.google.com/maps/place/MURAT+PERDE+HALI/@40.8438464,31.15654,14z/data=!4m8!1m2!2m1!1sperdeci!3m4!1s0x409d7550161ed259:0xd163717fa7e8bd01!8m2!3d40.8412763!4d31.1635493","openHours":"Salı,08:30 - 20:00; Çarşamba,08:30 - 20:00; Perşembe,08:30 - 20:00; Cuma,08:30 - 20:00; Cumartesi,08:30 - 20:00; Pazar,08:30 - 20:00; Pazartesi,08:30 - 20:00.","category":"Perde Mağazası","rating":" "},{"name":"Gelin Çeyiz Mefruşat","address":"Cedidiye, Sinan Cad. No:41, 81020 Düzce Merkez/Düzce","website":" ","tel":"(0380) 523 82 86","mapsUrl":"https://www.google.com/maps/place/Gelin+%C3%87eyiz+Mefru%C5%9Fat/@40.8438464,31.15654,14z/data=!4m8!1m2!2m1!1sperdeci!3m4!1s0x409d756cc4d9a6bf:0x412dff2c2008b70c!8m2!3d40.8364287!4d31.1624561","openHours":"Salı,09:00 - 20:00; Çarşamba,09:00 - 20:00; Perşembe,09:00 - 20:00; Cuma,09:00 - 20:00; Cumartesi,09:00 - 20:00; Pazar,Kapalı; Pazartesi,09:00 - 20:00.","category":"Mobilya mağazası","rating":" "},{"name":"Taçmin Perde","address":"Aziziye, Şht. Ramazan Gel Cd. No:2, 81010, 81010 Düzce Merkez/Düzce","website":" ","tel":" ","mapsUrl":"https://www.google.com/maps/place/Ta%C3%A7min+Perde/@40.8438464,31.15654,14z/data=!4m8!1m2!2m1!1sperdeci!3m4!1s0x409d9f4eaa4cfa17:0x7d963d1e365fb4bb!8m2!3d40.8436848!4d31.1405024","openHours":" ","category":"Ev Eşyaları Mağazası","rating":"5,0"},{"name":"Taç","address":"Cedidiye, Kızılay Meydanı/bayan Saniye Sok. No:4, 81020 Düzce Merkez/Düzce","website":"tac.com.tr","tel":"(0380) 514 97 01","mapsUrl":"https://www.google.com/maps/place/Ta%C3%A7/@40.8438464,31.15654,14z/data=!4m8!1m2!2m1!1sperdeci!3m4!1s0x409d755376960833:0x766f17c4dabc9d2d!8m2!3d40.83782!4d31.1598488","openHours":" ","category":"Karyola Mağazası","rating":"5,0"},{"name":"66 Perde","address":"Cedidiye, Kızılay Meydanı, Bayram Saniye Sk. No: 8/B, 81100 Düzce","website":"66perde.business.site","tel":"0554 585 72 74","mapsUrl":"https://www.google.com/maps/place/66+Perde/@40.843849,31.15654,14z/data=!4m8!1m2!2m1!1sperdeci!3m4!1s0x409d0aad4097d5d5:0x24068f0bb640ad8f!8m2!3d40.838147!4d31.159954","openHours":"Salı,09:00 - 19:00; Çarşamba,09:00 - 19:00; Perşembe,09:00 - 19:00; Cuma,09:00 - 19:00; Cumartesi,09:00 - 19:00; Pazar,Kapalı; Pazartesi,09:00 - 19:00.","category":"Perde Mağazası","rating":"5,0"},{"name":"GÜL PERDE","address":"Kültür, Akçakoca Cd. No:15, 81600 Düzce Merkez/Düzce","website":" ","tel":"0554 867 35 10","mapsUrl":"https://www.google.com/maps/place/G%C3%9CL+PERDE/@40.8438464,31.15654,14z/data=!4m8!1m2!2m1!1sperdeci!3m4!1s0x409d755a607fe7b5:0x6f94627a71b9798e!8m2!3d40.8402074!4d31.1594344","openHours":"Salı,09:30 - 21:00; Çarşamba,09:30 - 21:00; Perşembe,09:30 - 21:00; Cuma,09:30 - 21:00; Cumartesi,09:30 - 21:00; Pazar,Kapalı; Pazartesi,09:30 - 21:00.","category":"Ev Eşyaları Mağazası","rating":" "},{"name":"Kocaoğlu Perde","address":"Camikebir, İstanbul Cd. No:107, 81020 Merkez/Düzce Merkez/Düzce","website":" ","tel":"(0380) 523 37 58","mapsUrl":"https://www.google.com/maps/place/Kocao%C4%9Flu+Perde/@40.8401839,31.1280871,14z/data=!4m8!1m2!2m1!1sperdeci!3m4!1s0x409d9fe19246a8ff:0x4458fecf89a87569!8m2!3d40.8401839!4d31.1455966","openHours":"Salı,09:00 - 18:30; Çarşamba,09:00 - 18:30; Perşembe,09:00 - 18:30; Cuma,09:00 - 18:30; Cumartesi,09:00 - 18:30; Pazar,Kapalı; Pazartesi,09:00 - 18:30.","category":"Perde Mağazası","rating":"3,0"},{"name":"Özçelik Perde","address":"Cedidiye, 5858 Sk. No:1/m, 81000 Merkez/Düzce","website":" ","tel":"0532 100 78 23","mapsUrl":"https://www.google.com/maps/place/%C3%96z%C3%A7elik+Perde/@40.8438464,31.15654,14z/data=!4m8!1m2!2m1!1sperdeci!3m4!1s0x409d755ad88f34a5:0xb76526be17643597!8m2!3d40.823834!4d31.175741","openHours":"Salı,07:00 - 11:13; Çarşamba,07:00 - 11:13; Perşembe,07:00 - 11:13; Cuma,07:00 - 11:13; Cumartesi,07:00 - 11:13; Pazar,07:00 - 11:13; Pazartesi,07:00 - 11:13.","category":"Perde Mağazası","rating":" "},{"name":"düzce perde","address":"Uzun Mustafa, Nezih Tütüncüoğlu Bulvari No:27, 81100 merkez/Düzce Merkez/Düzce","website":" ","tel":"(0380) 514 66 16","mapsUrl":"https://www.google.com/maps/place/d%C3%BCzce+perde/@40.8438464,31.15654,14z/data=!4m8!1m2!2m1!1sperdeci!3m4!1s0x409d9fe42611c2b5:0x289b0fbdd2e9e412!8m2!3d40.842725!4d31.140199","openHours":" ","category":"Mefruşatçı","rating":"4,0"},{"name":"Pırıltı Perde Evi","address":"Hamidiye, 1259. Sk. No: 5/a D:2, 81030 Düzce Merkez/Düzce","website":" ","tel":"0544 212 63 13","mapsUrl":"https://www.google.com/maps/place/P%C4%B1r%C4%B1lt%C4%B1+Perde+Evi/@40.8438464,31.15654,14z/data=!4m8!1m2!2m1!1sperdeci!3m4!1s0x409d0aaaec6765bb:0x2b8b63b8d33550ed!8m2!3d40.8510102!4d31.163322","openHours":"Salı,09:00 - 19:00; Çarşamba,09:00 - 19:00; Perşembe,09:00 - 19:00; Cuma,09:00 - 19:00; Cumartesi,09:00 - 19:00; Pazar,Kapalı; Pazartesi,09:00 - 19:00.","category":"Perde Mağazası","rating":"5,0"},{"name":"Beyaz Perde Tasarım Evi Düzce Merkez","address":"Kültür, Çamlı Sk. No:2, 81600 Düzce Merkez/Düzce","website":" ","tel":"0539 791 67 25","mapsUrl":"https://www.google.com/maps/place/Beyaz+Perde+Tasar%C4%B1m+Evi+D%C3%BCzce+Merkez/@40.8438464,31.15654,14z/data=!4m8!1m2!2m1!1sperdeci!3m4!1s0x409d7558a5410299:0xeca5e6e025599f5e!8m2!3d40.840608!4d31.1491458","openHours":" ","category":"Ev Eşyaları Mağazası","rating":"5,0"},{"name":"Eda Perde","address":"Cedidiye Mah Mimar Sinan Cad, Necip Güney Sk. No:15, 81010 Merkez/Düzce","website":" ","tel":"(0380) 514 84 24","mapsUrl":"https://www.google.com/maps/place/Eda+Perde/@40.837066,31.1438039,14z/data=!4m8!1m2!2m1!1sperdeci!3m4!1s0x409d755361880a6d:0x220b1b8e9334ebdc!8m2!3d40.837066!4d31.1613134","openHours":"Salı,09:00 - 19:00; Çarşamba,09:00 - 19:00; Perşembe,09:00 - 19:00; Cuma,09:00 - 19:00; Cumartesi,09:00 - 19:00; Pazar,Kapalı; Pazartesi,09:00 - 19:00.","category":"Kumaş Mağazası","rating":"4,3"},{"name":"Velioğlu Perde","address":"İstanbul Caddesi Malatyalı Pasajı No:Z98/14, 81100 Merkez/Düzce","website":" ","tel":"(0380) 514 21 81","mapsUrl":"https://www.google.com/maps/place/Velio%C4%9Flu+Perde/@40.8438464,31.15654,14z/data=!4m8!1m2!2m1!1sperdeci!3m4!1s0x409d755a569a85f7:0x4baffc9796bc41aa!8m2!3d40.839609!4d31.158625","openHours":"Salı,09:00 - 20:00; Çarşamba,09:00 - 20:00; Perşembe,09:00 - 20:00; Cuma,09:00 - 20:00; Cumartesi,09:00 - 20:00; Pazar,Kapalı; Pazartesi,09:00 - 20:00.","category":"Perde Mağazası","rating":"5,0"},{"name":"Çetinkaya Perde Düzce","address":"Burhaniye, Atatürk Blv. 44/A, 81100 Düzce Merkez/Düzce","website":" ","tel":"(0380) 514 28 58","mapsUrl":"https://www.google.com/maps/place/%C3%87etinkaya+Perde+D%C3%BCzce/@40.8438464,31.15654,14z/data=!4m8!1m2!2m1!1sperdeci!3m4!1s0x409d75504ba6f58d:0xec7b30de198aed7a!8m2!3d40.842225!4d31.163789","openHours":"Salı,08:00 - 21:00; Çarşamba,08:00 - 21:00; Perşembe,08:00 - 21:00; Cuma,08:00 - 21:00; Cumartesi,08:00 - 21:00; Pazar,10:30 - 20:00; Pazartesi,08:00 - 21:00.","category":"Perde Mağazası","rating":"4,8"},{"name":"www.duzceperde.net","address":"Aziziye, Nezih Tütüncüoğlu Bulvari27/b, 81010 Düzce Merkez/Düzce","website":"duzceperde.net","tel":"(0380) 514 66 16","mapsUrl":"https://www.google.com/maps/place/www.duzceperde.net/@40.8438464,31.15654,14z/data=!4m8!1m2!2m1!1sperdeci!3m4!1s0x409d9fe67e503dc7:0x39111bd49f4d7ce0!8m2!3d40.8441117!4d31.141001","openHours":" ","category":" ","rating":" "},{"name":"ELİF PERDE","address":"Şerefiye, a, Atatürk Blv. No:13, 81010 Düzce Merkez/Düzce","website":"tikla.com.tr","tel":"(0380) 524 61 44","mapsUrl":"https://www.google.com/maps/place/EL%C4%B0F+PERDE/@40.8438464,31.15654,14z/data=!4m8!1m2!2m1!1sperdeci!3m4!1s0x409d755ab32295eb:0x5cc1e74f86d67d75!8m2!3d40.839701!4d31.162782","openHours":"Salı,08:00 - 20:30; Çarşamba,08:00 - 20:30; Perşembe,08:00 - 20:30; Cuma,08:00 - 20:30; Cumartesi,08:00 - 20:30; Pazar,Kapalı; Pazartesi,08:00 - 20:30.","category":"Ev Eşyaları Mağazası","rating":"5,0"},{"name":"Moda perde ve perde temizlik hizmetleri","address":"Yeni, Kırklar Sk. No:11, 81600 Düzce Merkez/Düzce","website":" ","tel":"0543 460 69 23","mapsUrl":"https://www.google.com/maps/place/Moda+perde+ve+perde+temizlik+hizmetleri/@40.8438464,31.15654,14z/data=!4m8!1m2!2m1!1sperdeci!3m4!1s0x409d9f33d33c3fb7:0x34445af098de44e6!8m2!3d40.8493316!4d31.147339","openHours":"Salı,24 saat açık; Çarşamba,24 saat açık; Perşembe,24 saat açık; Cuma,24 saat açık; Cumartesi,24 saat açık; Pazar,Kapalı; Pazartesi,09:00 - 19:00.","category":"Perde Mağazası","rating":" "},{"name":"Tamate Perde","address":"Azmimilli, 81020 Düzce Merkez/Düzce","website":" ","tel":" ","mapsUrl":"https://www.google.com/maps/place/Tamate+Perde/@40.8355819,31.1450368,14z/data=!4m8!1m2!2m1!1sperdeci!3m4!1s0x409d754386ed68d1:0x527a4f3fcbb90044!8m2!3d40.8355819!4d31.1625463","openHours":" ","category":" ","rating":"5,0"},{"name":"Gündoğdular Perde","address":"Cedidiye, Kızılay Meydanı No:7, 81020 Düzce Merkez/Düzce","website":" ","tel":"(0380) 512 22 22","mapsUrl":"https://www.google.com/maps/place/G%C3%BCndo%C4%9Fdular+Perde/@40.8438464,31.15654,14z/data=!4m8!1m2!2m1!1sperdeci!3m4!1s0x409d755b2c306db9:0xceaadddf82b38d14!8m2!3d40.838308!4d31.160678","openHours":"Salı,09:00 - 20:30; Çarşamba,09:00 - 20:30; Perşembe,09:00 - 20:30; Cuma,09:00 - 20:30; Cumartesi,09:00 - 20:30; Pazar,13:00 - 18:00; Pazartesi,09:00 - 20:30.","category":"Mobilya mağazası","rating":"4,1"},{"name":"Taçmin Perde","address":"Aziziye, Şht. Ramazan Gel Cd. No:2, 81010, 81010 Düzce Merkez/Düzce","website":" ","tel":" ","mapsUrl":"https://www.google.com/maps/place/Ta%C3%A7min+Perde/@40.8438464,31.15654,14z/data=!4m8!1m2!2m1!1sperdeci!3m4!1s0x409d9f4eaa4cfa17:0x7d963d1e365fb4bb!8m2!3d40.8436848!4d31.1405024","openHours":" ","category":"Ev Eşyaları Mağazası","rating":"5,0"},{"name":"MURAT PERDE HALI","address":"Burhaniye, 30, Atatürk Blv., 81010 Düzce Merkez","website":"muratperde.com","tel":"(0380) 523 00 58","mapsUrl":"https://www.google.com/maps/place/MURAT+PERDE+HALI/@40.8438464,31.15654,14z/data=!4m8!1m2!2m1!1sperdeci!3m4!1s0x409d7550161ed259:0xd163717fa7e8bd01!8m2!3d40.8412763!4d31.1635493","openHours":"Salı,08:30 - 20:00; Çarşamba,08:30 - 20:00; Perşembe,08:30 - 20:00; Cuma,08:30 - 20:00; Cumartesi,08:30 - 20:00; Pazar,08:30 - 20:00; Pazartesi,08:30 - 20:00.","category":"Perde Mağazası","rating":" "},{"name":"LÛLÛ PERDE","address":"Burhaniye, Atatürk Blv. No:62, 81010 Düzce Merkez/Düzce","website":" ","tel":"0544 521 81 81","mapsUrl":"https://www.google.com/maps/place/L%C3%9BL%C3%9B+PERDE/@40.8438464,31.15654,14z/data=!4m8!1m2!2m1!1sperdeci!3m4!1s0x409d7551a25f1f35:0x5253005174d68add!8m2!3d40.843313!4d31.1642208","openHours":"Salı,09:00 - 20:00; Çarşamba,09:00 - 20:00; Perşembe,09:00 - 20:00; Cuma,09:00 - 20:00; Cumartesi,09:00 - 20:00; Pazar,09:00 - 20:00; Pazartesi,09:00 - 20:00.","category":"Perde Mağazası","rating":"4,9"},{"name":"Osmanlı Perde","address":"Cedidiye, Hacı Hamdi Sk. No:23, 81020 Düzce Merkez/Düzce","website":" ","tel":" ","mapsUrl":"https://www.google.com/maps/place/Osmanl%C4%B1+Perde/@40.8438464,31.15654,14z/data=!4m8!1m2!2m1!1sperdeci!3m4!1s0x409d755b3ac32c75:0xc68a7c235fe304fb!8m2!3d40.838224!4d31.1600231","openHours":" ","category":" ","rating":" "},{"name":"Sevdim Perde","address":"Azmimilli, Cevdet Komit Cd. No:22, 81100 Merkez/Düzce","website":"tum-saatleri.com","tel":"0530 432 08 81","mapsUrl":"https://www.google.com/maps/place/Sevdim+Perde/@40.8438464,31.15654,14z/data=!4m8!1m2!2m1!1sperdeci!3m4!1s0x409d75c986e09009:0x3fbdc977a403045c!8m2!3d40.833418!4d31.158709","openHours":"Salı,08:30 - 21:30; Çarşamba,08:30 - 21:30; Perşembe,08:30 - 21:30; Cuma,08:30 - 21:30; Cumartesi,08:30 - 21:30; Pazar,08:30 - 21:30; Pazartesi,08:30 - 21:30.","category":"Perde Mağazası","rating":"5,0"},{"name":"Met Ajans","address":"Gaziantep Cad. Çınlar Sok., Ayakkabıcılar İş Hanı Kat: 2 No: 10/205, 81000","website":"duzcemetajans.com","tel":"0553 265 40 50","mapsUrl":"https://www.google.com/maps/place/Met+Ajans/@40.843849,31.15654,14z/data=!4m8!1m2!2m1!1sajans!3m4!1s0x409d755abf10b7e1:0x3f4d36adeb5569d5!8m2!3d40.839723!4d31.1613889","openHours":" ","category":"Reklam Ajansı","rating":"5,0"},{"name":"Gul Ajans Reklam Ltd.","address":"Şerefiye Serefiye M, Cengiz Topel Sk. No:4, 81030 Düzce Merkez/Düzce","website":"kelebekscript.com.tr","tel":"(0380) 514 28 99","mapsUrl":"https://www.google.com/maps/place/Gul+Ajans+Reklam+Ltd./@40.8438464,31.15654,14z/data=!4m8!1m2!2m1!1sajans!3m4!1s0x409d755a93a01a41:0xa7c3803e14c036b6!8m2!3d40.839964!4d31.1607299","openHours":" ","category":"Reklam Ajansı","rating":" "},{"name":"ARN Ajans","address":"Şerefiye, Uzunzade Sk. No:16, 81100 Düzce Merkez/Düzce","website":" ","tel":"0506 726 28 78","mapsUrl":"https://www.google.com/maps/place/ARN+Ajans/@40.8438464,31.15654,14z/data=!4m8!1m2!2m1!1sajans!3m4!1s0x409d755aa60741cb:0x42d89b9ea461bb4a!8m2!3d40.8400802!4d31.1625056","openHours":" ","category":"Reklam Ajansı","rating":" "},{"name":"Sinemarka Dijital Medya Ajansı","address":"Camikebir Mahallesi Rıhtım Caddesi No: 2 Pak Ekizceli İş Merkezi İç Kapı No:, D:126, 81020 Merkez/Düzce","website":"sinemarka.com","tel":"0535 252 67 17","mapsUrl":"https://www.google.com/maps/place/Sinemarka+Dijital+Medya+Ajans%C4%B1/@40.8438464,31.15654,14z/data=!4m8!1m2!2m1!1sajans!3m4!1s0x409d75872de7dfe3:0x159b14432c67ca48!8m2!3d40.8375628!4d31.1584685","openHours":"Salı,08:00 - 20:00; Çarşamba,08:00 - 20:00; Perşembe,08:00 - 20:00; Cuma,08:00 - 20:00; Cumartesi,09:00 - 19:00; Pazar,Kapalı; Pazartesi,08:00 - 20:00.","category":"Reklam Ajansı","rating":"5,0"},{"name":"Vega Medya Dijital Reklam Ajansı","address":"Camikebir, Eski Bağdat Cd. No:8, 81020, 81020 Düzce Merkez/Düzce","website":" ","tel":" ","mapsUrl":"https://www.google.com/maps/place/Vega+Medya+Dijital+Reklam+Ajans%C4%B1/@40.8438464,31.15654,14z/data=!4m8!1m2!2m1!1sajans!3m4!1s0x409d753f37288cc3:0x7d158e43e8a776fb!8m2!3d40.8400387!4d31.1490743","openHours":" ","category":"Reklam Ajansı","rating":" "},{"name":"bw. digital agency","address":"Şerefiye Mahallesi Rasim Betir Paşa Bulvarı 334 Sk. NO:16 Cengizler İş Merkezi Kat:3 Daire: 34, 81010 Düzce","website":"bw.net.tr","tel":"(0380) 514 33 29","mapsUrl":"https://www.google.com/maps/place/bw.+digital+agency/@40.8438464,31.15654,14z/data=!4m8!1m2!2m1!1sajans!3m4!1s0x409d9fe1148c064f:0x8728fd0817fa382!8m2!3d40.8443238!4d31.1628873","openHours":"Salı,09:00 - 18:00; Çarşamba,09:00 - 18:00; Perşembe,09:00 - 18:00; Cuma,09:00 - 18:00; Cumartesi,09:00 - 13:00; Pazar,Kapalı; Pazartesi,09:00 - 18:00.","category":"Web Sitesi Tasarımcısı","rating":"5,0"},{"name":"İstikbal Reklam Ajansı","address":"Şerefiye, Necatibey Sk. No:1, 81100 Düzce Merkez/Düzce","website":"istikbalreklam.com","tel":"(0380) 512 07 89","mapsUrl":"https://www.google.com/maps/place/%C4%B0stikbal+Reklam+Ajans%C4%B1/@40.8438464,31.15654,14z/data=!4m8!1m2!2m1!1sajans!3m4!1s0x409d75505c4a265f:0x1559a54c8092f60c!8m2!3d40.841826!4d31.162299","openHours":" ","category":"Reklam Ajansı","rating":"4,0"},{"name":"Ajans112 Reklam, Tasarım, Organizasyon ve Aracılık Hizmetleri","address":"Yıldız Mahallesi, Çamlı Sokağı No:13, 34755 Kâğıthane/İstanbul","website":"ajans112.com","tel":"0532 471 57 86","mapsUrl":"https://www.google.com/maps/place/Ajans112+Reklam,+Tasar%C4%B1m,+Organizasyon+ve+Arac%C4%B1l%C4%B1k+Hizmetleri/@40.8438464,31.15654,14z/data=!4m8!1m2!2m1!1sajans!3m4!1s0x409d752eadd100e9:0x25c5ef40517fe15!8m2!3d40.8450131!4d31.1595781","openHours":" ","category":"Reklam Ajansı","rating":" "},{"name":"Moda Reklam Ajansı","address":"Akınlar, Akınlar, Küçük Sanayi Sitesi, Akınlar Mah, 2615 Sk., 81100 Düzce Merkez/Düzce","website":" ","tel":"(0380) 524 42 24","mapsUrl":"https://www.google.com/maps/place/Moda+Reklam+Ajans%C4%B1/@40.8438464,31.15654,14z/data=!4m8!1m2!2m1!1sajans!3m4!1s0x409d9f8c769f6233:0x479076d6e6e9c074!8m2!3d40.852328!4d31.1176236","openHours":"Salı,09:00 - 18:00; Çarşamba,09:00 - 18:00; Perşembe,09:00 - 18:00; Cuma,09:00 - 18:00; Cumartesi,09:00 - 13:00; Pazar,Kapalı; Pazartesi,09:00 - 18:00.","category":"Reklam Ajansı","rating":" "},{"name":"Cihan Reklam Ajansı","address":"Merkez Mahallesi, Uzunmustafa Mah. D-100 Karayolu Üzeri, Dsi Karşısı No:457, 81000 Merkez/Düzce","website":"cihanreklamajansi.com","tel":"(0380) 524 64 55","mapsUrl":"https://www.google.com/maps/place/Cihan+Reklam+Ajans%C4%B1/@40.8438464,31.15654,14z/data=!4m8!1m2!2m1!1sajans!3m4!1s0x409d9f712140f7df:0xf18cbe58bd602a5!8m2!3d40.8479718!4d31.1469937","openHours":" ","category":"Reklam Ajansı","rating":" "},{"name":"Ajans112 Reklam, Tasarım ve Organizasyon","address":"Eski Sanayi Çarşısı No: 387, D:F, 81600 Merkez/Düzce","website":"ajans112.com","tel":"0532 440 81 81","mapsUrl":"https://www.google.com/maps/place/Ajans112+Reklam,+Tasar%C4%B1m+ve+Organizasyon/@40.847415,31.137302,14z/data=!4m8!1m2!2m1!1sajans!3m4!1s0x409d75cf7d3051c5:0x82228ebc6e5cad97!8m2!3d40.847415!4d31.1548115","openHours":"Salı,09:00 - 18:30; Çarşamba,09:00 - 18:30; Perşembe,09:00 - 18:30; Cuma,09:00 - 18:30; Cumartesi,09:00 - 18:30; Pazar,Kapalı; Pazartesi,09:00 - 18:30.","category":"Reklam Ajansı","rating":" "},{"name":"İstikbal Reklam Ajansı","address":"Cedidiye, Celal Kasapoğlu Cd. No:17/B, 81100 Merkez/Düzce","website":"istikbalreklam.com","tel":"(0380) 512 07 89","mapsUrl":"https://www.google.com/maps/place/%C4%B0stikbal+Reklam+Ajans%C4%B1/@40.837191,31.1466376,14z/data=!4m8!1m2!2m1!1sajans!3m4!1s0x409d75445a288079:0x936651debfe9e60f!8m2!3d40.837191!4d31.1641471","openHours":"Salı,08:00 - 23:59; Çarşamba,08:00 - 23:59; Perşembe,08:00 - 23:59; Cuma,08:00 - 23:59; Cumartesi,08:00 - 23:59; Pazar,08:00 - 23:59; Pazartesi,08:00 - 23:59.","category":"Reklam Ajansı","rating":" "},{"name":"Cihan Reklam Ajansı","address":"Merkez Mahallesi, Uzunmustafa Mah. D-100 Karayolu Üzeri, Dsi Karşısı No:457, 81000 Merkez/Düzce","website":"cihanreklamajansi.com","tel":"(0380) 524 64 55","mapsUrl":"https://www.google.com/maps/place/Cihan+Reklam+Ajans%C4%B1/@40.8438464,31.15654,14z/data=!4m8!1m2!2m1!1sajans!3m4!1s0x409d9f712140f7df:0xf18cbe58bd602a5!8m2!3d40.8479718!4d31.1469937","openHours":" ","category":"Reklam Ajansı","rating":" "},{"name":"Düzce Web Tasarım - Alse Medya Reklam","address":"Şerefiye, Atatürk Blv., 81100 Düzce Merkez/Düzce","website":" ","tel":"0532 133 63 00","mapsUrl":"https://www.google.com/maps/place/D%C3%BCzce+Web+Tasar%C4%B1m+-+Alse+Medya+Reklam/@40.8438464,31.15654,14z/data=!4m8!1m2!2m1!1sajans!3m4!1s0x409d0ba590d5be11:0x90a6421ada060aae!8m2!3d40.8452524!4d31.1648827","openHours":"Salı,24 saat açık; Çarşamba,24 saat açık; Perşembe,24 saat açık; Cuma,24 saat açık; Cumartesi,24 saat açık; Pazar,24 saat açık; Pazartesi,24 saat açık.","category":"Reklam Ajansı","rating":"5,0"},{"name":"Artı Reklam Tabela Matbaa Promosyon","address":"Şerifiye mah, Cengiz Topel Sk. 15/B, 81000 Merkez/Düzce","website":"artireklamduzce.business.site","tel":"0555 595 86 13","mapsUrl":"https://www.google.com/maps/place/Art%C4%B1+Reklam+Tabela+Matbaa+Promosyon/@40.8438464,31.15654,14z/data=!4m8!1m2!2m1!1sajans!3m4!1s0x409d752d008b164d:0xdc5f32333b9ecdc3!8m2!3d40.8407385!4d31.1609315","openHours":"Salı,09:00 - 19:00; Çarşamba,09:00 - 19:00; Perşembe,09:00 - 19:00; Cuma,09:00 - 19:00; Cumartesi,09:30 - 18:00; Pazar,Kapalı; Pazartesi,09:00 - 19:00.","category":"Reklam Ajansı","rating":"5,0"},{"name":"Serbay Interactive","address":"Merkez, Şerefiye Mh. Rasim Betir Paşa Bulvarı No:3 Kat:3/24, 81010 Düzce Merkez/Düzce","website":"serbay.net","tel":"(0380) 523 27 73","mapsUrl":"https://www.google.com/maps/place/Serbay+Interactive/@40.8438464,31.15654,14z/data=!4m8!1m2!2m1!1sajans!3m4!1s0x409d7559da996a0d:0x9b60e32a869137f7!8m2!3d40.843878!4d31.163587","openHours":"Salı,09:00 - 18:00; Çarşamba,09:00 - 18:00; Perşembe,09:00 - 18:00; Cuma,09:00 - 18:00; Cumartesi,09:00 - 18:00; Pazar,Kapalı; Pazartesi,09:00 - 18:00.","category":"Reklam Ajansı","rating":"4,5"},{"name":"Tetri Reklam Hizmetleri","address":"Yeni Mahalle, Saka Sk. No:10, 34890 Pendik/İstanbul","website":" ","tel":"(0380) 524 50 00","mapsUrl":"https://www.google.com/maps/place/Tetri+Reklam+Hizmetleri/@40.8438464,31.15654,14z/data=!4m8!1m2!2m1!1sajans!3m4!1s0x409d9ffebb41c1ef:0x759092f47abac8ee!8m2!3d40.8489!4d31.1519834","openHours":"Salı,09:00 - 21:00; Çarşamba,09:00 - 21:00; Perşembe,09:00 - 21:00; Cuma,09:00 - 21:00; Cumartesi,09:00 - 21:00; Pazar,Kapalı; Pazartesi,09:00 - 21:00.","category":"Reklam Ajansı","rating":"5,0"},{"name":"Sevgi Reklam","address":"Şerefiye mahallesi çınlar sokak ayakkabıcılar sitesi no:10/207, 0542 238 20 45, 81000 Düzce Merkez/Düzce","website":"sevgireklam.com","tel":"0542 238 20 45","mapsUrl":"https://www.google.com/maps/place/Sevgi+Reklam/@40.8438464,31.15654,14z/data=!4m8!1m2!2m1!1sajans!3m4!1s0x409d755abf99ee25:0x87ba6e9371b3c46e!8m2!3d40.8397595!4d31.1614366","openHours":"Salı,08:30 - 07:30; Çarşamba,08:30 - 07:30; Perşembe,08:30 - 07:30; Cuma,08:30 - 07:30; Cumartesi,08:30 - 07:30; Pazar,Kapalı; Pazartesi,08:30 - 07:30.","category":"Reklam Ajansı","rating":" "},{"name":"REKLAM KURDU","address":"Kültür, mehmet akif caddesi mazhar osman sokak no:4/A, 81100 merkez/Düzce","website":"reklamkurdu.com","tel":"0552 785 01 81","mapsUrl":"https://www.google.com/maps/place/REKLAM+KURDU/@40.8444699,31.1391867,14z/data=!4m8!1m2!2m1!1sajans!3m4!1s0x409d9ff9dbdd9afb:0x488f3b332898b8f3!8m2!3d40.8444699!4d31.1566962","openHours":"Salı,09:00 - 18:00; Çarşamba,09:00 - 18:00; Perşembe,09:00 - 18:00; Cuma,09:00 - 18:00; Cumartesi,09:00 - 18:00; Pazar,Kapalı; Pazartesi,09:00 - 18:00.","category":"Reklam Ajansı","rating":"5,0"},{"name":"Biz Reklam","address":"Kiremitocağı, Palacı Ahmet Sk. No:10, 81020 Düzce Merkez/Düzce","website":" ","tel":"0532 362 41 03","mapsUrl":"https://www.google.com/maps/place/Biz+Reklam/@40.8438464,31.15654,14z/data=!4m8!1m2!2m1!1sajans!3m4!1s0x409d755f2e2cd0cd:0xc2d8657362e8a3d9!8m2!3d40.8392144!4d31.1496461","openHours":"Salı,08:00 - 18:00; Çarşamba,08:00 - 18:00; Perşembe,08:00 - 18:00; Cuma,08:00 - 18:00; Cumartesi,08:00 - 18:00; Pazar,Kapalı; Pazartesi,08:00 - 18:00.","category":"Reklam Ajansı","rating":"5,0"},{"name":"Biz reklam","address":"Çay, Ela Bahriye Oral Blv. no:17, 81000 Merkez/Düzce","website":"biz-reklam.business.site","tel":"0555 500 10 20","mapsUrl":"https://www.google.com/maps/place/Biz+reklam/@40.8438464,31.15654,14z/data=!4m8!1m2!2m1!1sajans!3m4!1s0x409d75806a339343:0xf39de9b6de4e4685!8m2!3d40.8352177!4d31.150239","openHours":" ","category":"Reklam Ajansı","rating":" "},{"name":"Cihan Reklam Ajansı & Tabela","address":"Uzun Mustafa, 866. Sk No:459, 81010, 81010 Düzce Merkez/Düzce","website":"cihanreklamajansi.com","tel":"(0380) 524 64 55","mapsUrl":"https://www.google.com/maps/place/Cihan+Reklam+Ajans%C4%B1+%26+Tabela/@40.8438464,31.15654,14z/data=!4m8!1m2!2m1!1sajans!3m4!1s0x409d9f3c88cff781:0x39ad67cddcb025b!8m2!3d40.8479366!4d31.146952","openHours":"Salı,08:30 - 19:00; Çarşamba,08:30 - 19:00; Perşembe,08:30 - 19:00; Cuma,08:30 - 19:00; Cumartesi,08:30 - 17:00; Pazar,Kapalı; Pazartesi,08:30 - 19:00.","category":"Reklam Ajansı","rating":"5,0"},{"name":"SH Web ve Grafik Tasarım","address":"Hastane Cad. Serdar Seven İş Merkezi Kat:1 No:25, 81000 Düzce Merkez/Düzce","website":"shtasarim.com","tel":"(0380) 512 04 41","mapsUrl":"https://www.google.com/maps/place/SH+Web+ve+Grafik+Tasar%C4%B1m/@40.8438464,31.15654,14z/data=!4m8!1m2!2m1!1sajans!3m4!1s0x409d9fe16ee57549:0x8964f7ec0eeaec5e!8m2!3d40.840782!4d31.143324","openHours":"Salı,09:00 - 18:30; Çarşamba,09:00 - 18:30; Perşembe,09:00 - 18:30; Cuma,09:00 - 18:30; Cumartesi,09:00 - 18:30; Pazar,Kapalı; Pazartesi,09:00 - 18:30.","category":"Reklam Ajansı","rating":" "},{"name":"Biz Reklam","address":"Camikebir, Kuyumcuzade Blv. no 67, 81020 Düzce Merkez/Düzce","website":" ","tel":"0555 500 10 20","mapsUrl":"https://www.google.com/maps/place/Biz+Reklam/@40.8438464,31.15654,14z/data=!4m8!1m2!2m1!1sajans!3m4!1s0x409d7524f0821ca9:0xc42bcfaa4145d6c8!8m2!3d40.8385346!4d31.1507373","openHours":" ","category":"Reklam Ajansı","rating":" "},{"name":"Panorama Tanıtım","address":"Uzun Mustafa, Kuyumcuzade Blv. No:70, 81010 Merkez/Düzce","website":"panorama-tanitim.com","tel":"0530 950 94 37","mapsUrl":"https://www.google.com/maps/place/Panorama+Tan%C4%B1t%C4%B1m/@40.8438464,31.15654,14z/data=!4m8!1m2!2m1!1sajans!3m4!1s0x409d755874edd6df:0xcd789bd1ab7ed408!8m2!3d40.842726!4d31.151039","openHours":"Salı,09:30 - 23:30; Çarşamba,09:30 - 23:30; Perşembe,09:30 - 23:30; Cuma,09:30 - 23:30; Cumartesi,09:30 - 23:30; Pazar,09:30 - 23:30; Pazartesi,09:30 - 23:30.","category":"Reklam Ajansı","rating":" "},{"name":"Yavuz Ofset Medya ve Reklam","address":"Şerefiye, Rasim Betir Paşa Blv. No:10, 81010, 81010 Düzce Merkez/Düzce","website":" ","tel":"(0380) 512 12 12","mapsUrl":"https://www.google.com/maps/place/Yavuz+Ofset+Medya+ve+Reklam/@40.8438464,31.15654,14z/data=!4m8!1m2!2m1!1sajans!3m4!1s0x409d7545af6a7f5f:0xa93017fa40b15e6d!8m2!3d40.8443361!4d31.1626297","openHours":"Salı,09:00 - 18:00; Çarşamba,09:00 - 18:00; Perşembe,09:00 - 18:00; Cuma,09:00 - 18:00; Cumartesi,09:00 - 18:00; Pazar,Kapalı; Pazartesi,09:00 - 18:00.","category":"Reklam Ajansı","rating":"4,0"},{"name":"Sönmez Reklam","address":"Fatih, D100 Karayolu No:462/A, 81030 Düzce Merkez/Düzce","website":"sonmezreklam.com","tel":"(0380) 523 72 55","mapsUrl":"https://www.google.com/maps/place/S%C3%B6nmez+Reklam/@40.8438464,31.15654,14z/data=!4m8!1m2!2m1!1sajans!3m4!1s0x409d8e6f79b9f76f:0x2816b341af91d92c!8m2!3d40.8486254!4d31.1418263","openHours":"Salı,08:30 - 18:00; Çarşamba,08:30 - 18:00; Perşembe,08:30 - 18:00; Cuma,08:30 - 18:00; Cumartesi,08:30 - 18:00; Pazar,Kapalı; Pazartesi,08:30 - 18:00.","category":"Reklam Ajansı","rating":"4,9"},{"name":"Turgut Reklam ve Tabela","address":" ","website":"turgutreklam.com","tel":"(0380) 523 06 64","mapsUrl":"https://www.google.com/maps/place/Turgut+Reklam+ve+Tabela/@40.8438464,31.15654,14z/data=!4m8!1m2!2m1!1sajans!3m4!1s0x409d7547463e5e1d:0x48259f849104364f!8m2!3d40.8560805!4d31.147086","openHours":"Salı,09:00 - 19:00; Çarşamba,09:00 - 19:00; Perşembe,09:00 - 19:00; Cuma,09:00 - 19:00; Cumartesi,09:00 - 19:00; Pazar,Kapalı; Pazartesi,09:00 - 19:00.","category":"Reklam Ajansı","rating":"4,3"},{"name":"Tayyare Limanı","address":"Şerefiye, Rasim Betir Paşa Blv. No:3 D:Kat:3 Daire:8, 81100 Merkez/Düzce","website":"tayyarelimani.com","tel":"(0380) 523 27 73","mapsUrl":"https://www.google.com/maps/place/Tayyare+Liman%C4%B1/@40.8438464,31.15654,14z/data=!4m8!1m2!2m1!1sajans!3m4!1s0x409d755173ff801f:0x9caae9257c217355!8m2!3d40.8438133!4d31.1640573","openHours":" ","category":"Reklam Ajansı","rating":"5,0"},{"name":"Reklamvs","address":"Şerefiye, 334. Sk., 81010 Düzce Merkez/Düzce","website":" ","tel":"0541 838 88 81","mapsUrl":"https://www.google.com/maps/place/Reklamvs/@40.8438464,31.15654,14z/data=!4m8!1m2!2m1!1sajans!3m4!1s0x409d7556c9852db9:0xf87f2afc6a2bb480!8m2!3d40.845186!4d31.163569","openHours":"Salı,24 saat açık; Çarşamba,24 saat açık; Perşembe,24 saat açık; Cuma,24 saat açık; Cumartesi,24 saat açık; Pazar,Kapalı; Pazartesi,24 saat açık.","category":"Reklam Ajansı","rating":"4,9"},{"name":"Oxijen Medya Reklam","address":"Kültür, Akçam Sk. No:7, 81600 Düzce Merkez/Düzce","website":"oxijenmedya.com","tel":"(0380) 514 19 49","mapsUrl":"https://www.google.com/maps/place/Oxijen+Medya+Reklam/@40.8438464,31.15654,14z/data=!4m8!1m2!2m1!1sajans!3m4!1s0x409d75537a31b109:0x4332c9366e78d524!8m2!3d40.841041!4d31.148244","openHours":" ","category":"Reklam Ajansı","rating":"4,1"},{"name":"Ses Reklam","address":"Azmimilli Mah, Merkez, Aydınpınar Cd., 81010 Düzce Merkez/Düzce","website":" ","tel":"0532 233 81 87","mapsUrl":"https://www.google.com/maps/place/Ses+Reklam/@40.8438464,31.15654,14z/data=!4m8!1m2!2m1!1sajans!3m4!1s0x409d758a9a91634f:0xab09bb25928a3962!8m2!3d40.83263!4d31.1552825","openHours":" ","category":"Reklam Ajansı","rating":" "},{"name":"Coşkun Reklam","address":"Burhaniye, Şht. Ruhsar Cd No:49/B, 81010 Merkez/Düzce","website":"facebook.com","tel":"0537 289 56 05","mapsUrl":"https://www.google.com/maps/place/Co%C5%9Fkun+Reklam/@40.8438464,31.15654,14z/data=!4m8!1m2!2m1!1sajans!3m4!1s0x409d75d178b895ad:0x439308e1cd4b7fd3!8m2!3d40.8401491!4d31.1651309","openHours":"Salı,08:30 - 19:00; Çarşamba,08:30 - 19:00; Perşembe,08:30 - 19:00; Cuma,08:30 - 19:00; Cumartesi,08:30 - 19:00; Pazar,Kapalı; Pazartesi,08:30 - 19:00.","category":"Reklam Ajansı","rating":" "},{"name":"REKLAMbu Tabela - Tasarım - Reklam","address":"Azmimilli, Gazhane Cd. No:20/A, 81020 Merkez/Düzce","website":"reklambu.net","tel":"0505 751 20 66","mapsUrl":"https://www.google.com/maps/place/REKLAMbu+Tabela+-+Tasar%C4%B1m+-+Reklam/@40.8438464,31.15654,14z/data=!4m8!1m2!2m1!1sajans!3m4!1s0x409d75176e6c77d1:0x4dcc60776414a654!8m2!3d40.8363029!4d31.1605817","openHours":" ","category":"Reklam Ajansı","rating":"5,0"},{"name":"Grafikir Design","address":"Aziziye, 996. Sk. No:7/A, 81010 Merkez/Düzce","website":" ","tel":"0553 954 64 81","mapsUrl":"https://www.google.com/maps/place/Grafikir+Design/@40.8438464,31.15654,14z/data=!4m8!1m2!2m1!1sajans!3m4!1s0x409d9fd84b4fc5af:0xda30b9c624210f38!8m2!3d40.8398563!4d31.139206","openHours":"Salı,09:00 - 19:00; Çarşamba,09:00 - 19:00; Perşembe,09:00 - 19:00; Cuma,09:00 - 19:00; Cumartesi,09:00 - 19:00; Pazar,Kapalı; Pazartesi,09:00 - 19:00.","category":"Reklam Ajansı","rating":"5,0"},{"name":"GRAFİTA REKLAM","address":"Cedidiye, Zaferi Milli Sk. No:12/A, 81020 Düzce Merkez/Düzce","website":"duzcetso.org.tr","tel":"(0380) 514 89 31","mapsUrl":"https://www.google.com/maps/place/GRAF%C4%B0TA+REKLAM/@40.8438464,31.15654,14z/data=!4m8!1m2!2m1!1sajans!3m4!1s0x409d75c705a82d53:0x747e77f22ee356fe!8m2!3d40.8366354!4d31.1651572","openHours":" ","category":"Reklam Ajansı","rating":"4,0"},{"name":"Düzce Star Reklam","address":"Kültür, Spor Sk. No:27, 81600 Düzce Merkez/Düzce","website":"duzcestarreklam.com","tel":"0535 211 50 41","mapsUrl":"https://www.google.com/maps/place/D%C3%BCzce+Star+Reklam/@40.8438464,31.15654,14z/data=!4m8!1m2!2m1!1sajans!3m4!1s0x409d7559be8ce241:0xaca55c0154012257!8m2!3d40.841331!4d31.1547318","openHours":" ","category":"Reklam Ajansı","rating":"4,1"},{"name":"Grafinyum","address":"Camikebir Mah, Mareşal Fevzi Çakmak Sk. No:12 D:107, 81100 Düzce Merkez/Düzce","website":"grafinyum.com.tr","tel":"0536 507 70 71","mapsUrl":"https://www.google.com/maps/place/Grafinyum/@40.8438464,31.15654,14z/data=!4m8!1m2!2m1!1sajans!3m4!1s0x409d7546f7de474f:0x3838706405e6c472!8m2!3d40.8389178!4d31.1582873","openHours":"Salı,09:00 - 19:00; Çarşamba,09:00 - 19:00; Perşembe,09:00 - 19:00; Cuma,09:00 - 19:00; Cumartesi,11:00 - 18:00; Pazar,Kapalı; Pazartesi,09:00 - 19:00.","category":"Reklam Ajansı","rating":"5,0"},{"name":"Reklam Arena","address":"Cedidiye, Bolu Cd. NO:66/F, 81010 merkez/Düzce","website":"reklamarena.com","tel":"0554 909 89 19","mapsUrl":"https://www.google.com/maps/place/Reklam+Arena/@40.8438464,31.15654,14z/data=!4m8!1m2!2m1!1sajans!3m4!1s0x409d7551a2646753:0x1c5ca1bb3761643f!8m2!3d40.836366!4d31.16875","openHours":"Salı,08:00 - 18:30; Çarşamba,08:00 - 18:30; Perşembe,08:00 - 18:30; Cuma,08:00 - 18:30; Cumartesi,08:00 - 18:30; Pazar,Kapalı; Pazartesi,08:00 - 18:30.","category":"Reklam Ajansı","rating":" "},{"name":"MEDYAGON","address":"Cedidiye Mah. Köprü Sok. Nimet İş Merkezi, D:10, 81000 Merkez/Düzce","website":"medyagon.com","tel":"0552 278 81 42","mapsUrl":"https://www.google.com/maps/place/MEDYAGON/@40.8438464,31.15654,14z/data=!4m8!1m2!2m1!1sajans!3m4!1s0x409d75dbd7b7259f:0xe20e74e767e53ecc!8m2!3d40.8372079!4d31.1627735","openHours":"Salı,09:00 - 19:00; Çarşamba,09:00 - 19:00; Perşembe,09:00 - 19:00; Cuma,09:00 - 19:00; Cumartesi,09:00 - 19:00; Pazar,09:00 - 19:00; Pazartesi,09:00 - 19:00.","category":"Reklam Ajansı","rating":" "}]