[{"name":"Et Dönerci","address":"Kültür, Malatyalı Pasajı, İstanbul Cd., 81100 Merkez/Düzce","website":"etdonerci.com","tel":"(0380) 514 90 00","mapsUrl":"https://www.google.com/maps/place/Et+D%C3%B6nerci/@40.843849,31.15654,14z/data=!4m8!1m2!2m1!1zZMO2bmVyY2k!3m4!1s0x409d9fff35c8ad55:0x74df6bca310fe433!8m2!3d40.8395079!4d31.1586061","openHours":"Pazartesi,10:00 - 22:00; Salı,10:00 - 22:00; Çarşamba,10:00 - 22:00; Perşembe,10:00 - 22:00; Cuma,10:00 - 22:00; Cumartesi,10:00 - 22:00; Pazar,10:00 - 22:00.","category":"Fast food lokantası","rating":"5,0"},{"name":"Nasibim DÖNER","address":"Çay, Aydınpınar Cd., 81020 Merkez/Düzce","website":"nasibim-doner.business.site","tel":"(0380) 524 14 54","mapsUrl":"https://www.google.com/maps/place/Nasibim+D%C3%96NER/@40.8438464,31.15654,14z/data=!4m8!1m2!2m1!1zZMO2bmVyY2k!3m4!1s0x409d755cae64b6a3:0xe95479976d170621!8m2!3d40.8365261!4d31.1585595","openHours":"Pazartesi,09:00 - 19:30; Salı,09:00 - 19:30; Çarşamba,09:00 - 19:30; Perşembe,09:00 - 19:30; Cuma,09:00 - 19:30; Cumartesi,09:00 - 19:30; Pazar,09:00 - 19:30.","category":"Restoran","rating":"4,2"},{"name":"Namlı Döner","address":"Şerefiye, Gaziantep Cd. No:4, 81010 Düzce Merkez/Düzce","website":"iyifirma.com","tel":"(0380) 523 50 43","mapsUrl":"https://www.google.com/maps/place/Naml%C4%B1+D%C3%B6ner/@40.8438464,31.15654,14z/data=!4m8!1m2!2m1!1zZMO2bmVyY2k!3m4!1s0x409d755aeec489a9:0x3190f2c6a60fe0c3!8m2!3d40.83941!4d31.160942","openHours":"Pazartesi,08:00 - 22:00; Salı,08:00 - 22:00; Çarşamba,08:00 - 22:00; Perşembe,08:00 - 22:00; Cuma,08:00 - 22:00; Cumartesi,08:00 - 22:00; Pazar,09:00 - 21:00.","category":"Restoran","rating":"4,6"},{"name":"Rota Tavuk Doner","address":"Şerefiye, Rasim Betir Paşa Blv. No:7, 81010 Düzce Merkez/Düzce","website":" ","tel":" ","mapsUrl":"https://www.google.com/maps/place/Rota+Tavuk+Doner/@40.8438464,31.15654,14z/data=!4m8!1m2!2m1!1zZMO2bmVyY2k!3m4!1s0x409d75516e7df75d:0x8c5efe54a8b87ee7!8m2!3d40.8439706!4d31.1630117","openHours":"Pazartesi,09:00 - 20:00; Salı,09:00 - 20:00; Çarşamba,09:00 - 20:00; Perşembe,09:00 - 20:00; Cuma,09:00 - 20:00; Cumartesi,09:00 - 20:00; Pazar,Kapalı.","category":"Restoran","rating":"4,4"},{"name":"Aydin döner","address":"Burhaniye, Bolu Cd., 81010 Düzce Merkez/Düzce","website":"tikla.com.tr","tel":"(0380) 523 22 20","mapsUrl":"https://www.google.com/maps/place/Aydin+d%C3%B6ner/@40.8438464,31.15654,14z/data=!4m8!1m2!2m1!1zZMO2bmVyY2k!3m4!1s0x409d7545171664bb:0xccacc6661a2ffdf!8m2!3d40.8385803!4d31.1634939","openHours":"Pazartesi,08:00 - 20:00; Salı,08:00 - 20:00; Çarşamba,08:00 - 20:00; Perşembe,08:00 - 20:00; Cuma,08:00 - 20:00; Cumartesi,08:00 - 20:00; Pazar,08:00 - 20:00.","category":"Restoran","rating":"4,6"},{"name":"Yaprak Döner","address":"Şerefiye, İstanbul Cad., 81010 Merkez/Düzce Merkez/Düzce","website":" ","tel":"(0380) 524 66 50","mapsUrl":"https://www.google.com/maps/place/Yaprak+D%C3%B6ner/@40.8438464,31.15654,14z/data=!4m8!1m2!2m1!1zZMO2bmVyY2k!3m4!1s0x409d755addf6a3f9:0x4e553f3188be9929!8m2!3d40.8392496!4d31.160137","openHours":"Pazartesi,06:00 - 23:00; Salı,06:00 - 23:00; Çarşamba,06:00 - 23:00; Perşembe,06:00 - 23:00; Cuma,06:00 - 23:00; Cumartesi,06:00 - 23:00; Pazar,06:00 - 23:00.","category":"Restoran","rating":"4,1"},{"name":"Aşan DÖNER","address":"Cedidiye camii yanında, 81020 Düzce Merkez/Düzce","website":" ","tel":"0538 390 92 45","mapsUrl":"https://www.google.com/maps/place/A%C5%9Fan+D%C3%96NER/@40.8438464,31.15654,14z/data=!4m8!1m2!2m1!1zZMO2bmVyY2k!3m4!1s0x409d753ce19b482d:0x48c88f1e5b608524!8m2!3d40.8381476!4d31.163152","openHours":"Pazartesi,09:00 - 20:00; Salı,09:00 - 20:00; Çarşamba,09:00 - 20:00; Perşembe,09:00 - 20:00; Cuma,09:00 - 20:00; Cumartesi,09:00 - 20:00; Pazar,Kapalı.","category":"Restoran","rating":"4,2"},{"name":"Öncü Döner","address":"Şerefiye, Gaziantep Cd. No:17, 81010 Merkez/Düzce Merkez/Düzce Merkez/Düzce","website":"oncudoner.com","tel":"(0380) 525 05 30","mapsUrl":"https://www.google.com/maps/place/%C3%96nc%C3%BC+D%C3%B6ner/@40.8438464,31.15654,14z/data=!4m8!1m2!2m1!1zZMO2bmVyY2k!3m4!1s0x409d755ae9b1a845:0xa68f5f312c2a03d6!8m2!3d40.8393898!4d31.1605835","openHours":"Pazartesi,10:30 - 23:00; Salı,10:30 - 23:00; Çarşamba,10:30 - 23:00; Perşembe,10:30 - 23:00; Cuma,10:30 - 23:00; Cumartesi,10:30 - 23:00; Pazar,10:30 - 23:00.","category":"Türkmen Restoranı","rating":"3,6"},{"name":"Ekrem Coşkun Döner Düzce","address":"Kültür, Spor Sk. No:4, 81600 Düzce Merkez/Düzce","website":"ekremcoskundoner.com.tr","tel":"0544 323 81 81","mapsUrl":"https://www.google.com/maps/place/Ekrem+Co%C5%9Fkun+D%C3%B6ner+D%C3%BCzce/@40.8438464,31.15654,14z/data=!4m8!1m2!2m1!1zZMO2bmVyY2k!3m4!1s0x409d75219619b05d:0x4ff02e199d2afce5!8m2!3d40.840036!4d31.1592199","openHours":"Pazartesi,10:00 - 22:00; Salı,10:00 - 22:00; Çarşamba,10:00 - 22:00; Perşembe,10:00 - 22:00; Cuma,10:00 - 22:00; Cumartesi,10:00 - 22:00; Pazar,10:00 - 22:00.","category":"Restoran","rating":"4,0"},{"name":"Doğan Döner","address":"Kültür, Kuyumcuzade Blv. No:29, 81600 Düzce Merkez/Düzce","website":" ","tel":" ","mapsUrl":"https://www.google.com/maps/place/Do%C4%9Fan+D%C3%B6ner/@40.8438464,31.15654,14z/data=!4m8!1m2!2m1!1zZMO2bmVyY2k!3m4!1s0x409d9fe2a7cf1e67:0xe7cbe0ee2377c0c6!8m2!3d40.8431715!4d31.1512875","openHours":"Pazartesi,08:00 - 21:00; Salı,08:00 - 21:00; Çarşamba,08:00 - 21:00; Perşembe,08:00 - 21:00; Cuma,08:00 - 21:00; Cumartesi,08:00 - 21:00; Pazar,08:00 - 21:00.","category":"Restoran","rating":"4,4"},{"name":"Bereket Döner Düzce Krempark AVM Şubesi","address":"Merkez, İstanbul Cd. No:1 D:3, 81000 Düzce Merkez/Düzce","website":"bereketdoner.com","tel":"(0380) 790 14 79","mapsUrl":"https://www.google.com/maps/place/Bereket+D%C3%B6ner+D%C3%BCzce+Krempark+AVM+%C5%9Eubesi/@40.8438464,31.15654,14z/data=!4m8!1m2!2m1!1zZMO2bmVyY2k!3m4!1s0x409d7558db8ccc2f:0xcbf67f0d8cd9af99!8m2!3d40.8408393!4d31.1524147","openHours":"Pazartesi,10:00 - 22:00; Salı,10:00 - 22:00; Çarşamba,10:00 - 22:00; Perşembe,10:00 - 22:00; Cuma,10:00 - 22:00; Cumartesi,10:00 - 22:00; Pazar,10:00 - 22:00.","category":"Türk restoranı","rating":"3,7"},{"name":"Etibeyaz Düzce","address":"Şerefiye, İstanbul Cd. No:66, 81010 Düzce Merkez/Düzce","website":" ","tel":"(0380) 524 40 10","mapsUrl":"https://www.google.com/maps/place/Etibeyaz+D%C3%BCzce/@40.8438464,31.15654,14z/data=!4m8!1m2!2m1!1zZMO2bmVyY2k!3m4!1s0x409d755ae7572a71:0x95c25ee08ca96128!8m2!3d40.839109!4d31.160274","openHours":"Pazartesi,08:30 - 21:00; Salı,08:30 - 21:00; Çarşamba,08:30 - 21:00; Perşembe,08:30 - 21:00; Cuma,08:30 - 21:00; Cumartesi,08:30 - 21:00; Pazar,Kapalı.","category":"Et Lokantası","rating":"4,4"},{"name":"Afet Döner","address":"Kültür, Kuyumcuzade Blv. No:86, 81600 Düzce Merkez/Düzce","website":" ","tel":" ","mapsUrl":"https://www.google.com/maps/place/Afet+D%C3%B6ner/@40.8438464,31.15654,14z/data=!4m8!1m2!2m1!1zZMO2bmVyY2k!3m4!1s0x409d755862f4378f:0xdc2ec592c078dc33!8m2!3d40.8416866!4d31.1508838","openHours":"Pazartesi,09:00 - 20:00; Salı,09:00 - 20:00; Çarşamba,09:00 - 20:00; Perşembe,09:00 - 20:00; Cuma,09:00 - 20:00; Cumartesi,09:00 - 20:00; Pazar,09:00 - 20:00.","category":"Restoran","rating":"4,0"},{"name":"Layt Tavuk İskender Döner","address":"Şerefiye, Gaziantep Cd. No:22, 81010 Düzce Merkez/Düzce","website":" ","tel":"(0380) 514 55 66","mapsUrl":"https://www.google.com/maps/place/Layt+Tavuk+%C4%B0skender+D%C3%B6ner/@40.8438464,31.15654,14z/data=!4m8!1m2!2m1!1zZMO2bmVyY2k!3m4!1s0x409d0aab45d7f2ed:0xfb0d239b842c00f8!8m2!3d40.8397703!4d31.1595897","openHours":"Pazartesi,10:00 - 21:00; Salı,10:00 - 21:00; Çarşamba,10:00 - 21:00; Perşembe,10:00 - 21:00; Cuma,10:00 - 21:00; Cumartesi,10:00 - 21:00; Pazar,Kapalı.","category":"Restoran","rating":"3,3"},{"name":"Mustafa'nınyeri","address":"Şerefiye, Gaziantep Cad./ümit Sok. No:1, 81010 Düzce Merkez/Düzce","website":" ","tel":"(0380) 524 03 33","mapsUrl":"https://www.google.com/maps/place/Mustafa'n%C4%B1nyeri/@40.8438464,31.15654,14z/data=!4m8!1m2!2m1!1zZMO2bmVyY2k!3m4!1s0x409d7565d5455929:0xcc490227a32709c0!8m2!3d40.8397618!4d31.1599535","openHours":"Pazartesi,10:00 - 21:00; Salı,10:00 - 21:00; Çarşamba,10:00 - 21:00; Perşembe,10:00 - 21:00; Cuma,10:00 - 21:00; Cumartesi,10:00 - 21:00; Pazar,Kapalı.","category":"Restoran","rating":"3,2"},{"name":"Doğan Kebap","address":"Şerefiye, Gaziantep Cd. No:37, 81010 Düzce Merkez/Düzce","website":" ","tel":"(0380) 512 03 61","mapsUrl":"https://www.google.com/maps/place/Do%C4%9Fan+Kebap/@40.8438464,31.15654,14z/data=!4m8!1m2!2m1!1zZMO2bmVyY2k!3m4!1s0x409d755ae922c5bb:0xfa0cc6ab3cf09e91!8m2!3d40.8397158!4d31.1595493","openHours":"Pazartesi,07:30 - 22:00; Salı,07:30 - 22:00; Çarşamba,07:30 - 22:00; Perşembe,07:30 - 22:00; Cuma,07:30 - 22:00; Cumartesi,07:30 - 22:00; Pazar,Kapalı.","category":"Kebap Restoranı","rating":"4,1"},{"name":"Cadde Döner","address":"Cedidiye, 81010 Düzce Merkez/Düzce","website":" ","tel":" ","mapsUrl":"https://www.google.com/maps/place/Cadde+D%C3%B6ner/@40.8438464,31.15654,14z/data=!4m8!1m2!2m1!1zZMO2bmVyY2k!3m4!1s0x409d755ad69f876d:0x29a6917d267ac04e!8m2!3d40.8387086!4d31.1612778","openHours":" ","category":"Restoran","rating":" "},{"name":"BURSADÖNER","address":"Şerefiye, Akçakoca Cd. No:4, 81010 Düzce Merkez/Düzce","website":"bursadoner.business.site","tel":"(0380) 514 55 66","mapsUrl":"https://www.google.com/maps/place/BURSAD%C3%96NER/@40.8438464,31.15654,14z/data=!4m8!1m2!2m1!1zZMO2bmVyY2k!3m4!1s0x409d755af6727005:0x4ba841ce1330abc5!8m2!3d40.8396468!4d31.1594771","openHours":"Pazartesi,08:30 - 21:30; Salı,08:30 - 21:30; Çarşamba,08:30 - 21:30; Perşembe,08:30 - 21:30; Cuma,08:30 - 21:30; Cumartesi,08:30 - 21:30; Pazar,08:30 - 21:30.","category":"Restoran","rating":"3,6"},{"name":"Aydın Unlu Mamülleri","address":"Camikebir, Eski Bağdat Cd. No:2, 81020 Düzce Merkez/Düzce","website":" ","tel":"(0380) 523 22 20","mapsUrl":"https://www.google.com/maps/place/Ayd%C4%B1n+Unlu+Mam%C3%BClleri/@40.8438464,31.15654,14z/data=!4m8!1m2!2m1!1zZMO2bmVyY2k!3m4!1s0x409d7558c71d14ad:0x14dbbb3e7831c60a!8m2!3d40.8402609!4d31.150108","openHours":"Pazartesi,08:30 - 20:00; Salı,08:30 - 20:00; Çarşamba,08:30 - 20:00; Perşembe,08:30 - 20:00; Cuma,08:30 - 20:00; Cumartesi,08:30 - 20:00; Pazar,Kapalı.","category":"Restoran","rating":"5,0"},{"name":"Urfa Sofrası","address":"Fevzi Çakmak Mh., 81100 Düzce Merkez/Düzce","website":" ","tel":" ","mapsUrl":"https://www.google.com/maps/place/Urfa+Sofras%C4%B1/@40.8438464,31.15654,14z/data=!4m8!1m2!2m1!1zZMO2bmVyY2k!3m4!1s0x409d7526b352fbf1:0xcba8108f22f2feca!8m2!3d40.8278007!4d31.1891177","openHours":" ","category":"Restoran","rating":"4,5"},{"name":"Elit Doner","address":"Cedidiye, 81020 Düzce Merkez/Düzce","website":" ","tel":"(0380) 514 23 43","mapsUrl":"https://www.google.com/maps/place/Elit+Doner/@40.8438464,31.15654,14z/data=!4m9!1m3!2m2!1zZMO2bmVyY2k!6e5!3m4!1s0x409d75451782b155:0x189a60bdd2d0040b!8m2!3d40.8383275!4d31.163609","openHours":"Pazartesi,24 saat açık; Salı,24 saat açık; Çarşamba,24 saat açık; Perşembe,24 saat açık; Cuma,24 saat açık; Cumartesi,24 saat açık; Pazar,Kapalı.","category":"Restoran","rating":"5,0"},{"name":"Nasibim Tavuk Döner","address":"Azmimilli, Aydınpınar Cd. 9-11, 81020 Düzce Merkez/Düzce","website":" ","tel":" ","mapsUrl":"https://www.google.com/maps/place/Nasibim+Tavuk+D%C3%B6ner/@40.8438464,31.15654,14z/data=!4m9!1m3!2m2!1zZMO2bmVyY2k!6e5!3m4!1s0x409d755cb5d702ef:0xa4e3205ff2cb005c!8m2!3d40.8359884!4d31.1582727","openHours":"Pazartesi,10:00 - 21:00; Salı,10:00 - 21:00; Çarşamba,10:00 - 21:00; Perşembe,10:00 - 21:00; Cuma,10:00 - 21:00; Cumartesi,10:00 - 21:00; Pazar,Kapalı.","category":"Restoran","rating":"1,0"},{"name":"KADİRBEY TAVUK DÖNER","address":"Şerefiye, Gaziantep Cd. No:4, 81010 Düzce Merkez/Düzce","website":" ","tel":" ","mapsUrl":"https://www.google.com/maps/place/KAD%C4%B0RBEY+TAVUK+D%C3%96NER/@40.8438464,31.15654,14z/data=!4m9!1m3!2m2!1zZMO2bmVyY2k!6e5!3m4!1s0x409d755ac3cc0d8b:0xc78a35c852975476!8m2!3d40.83941!4d31.160942","openHours":" ","category":"Restoran","rating":"4,0"},{"name":"Acıktım Döner","address":"Nusrettin, 81010 Düzce Merkez/Düzce","website":" ","tel":" ","mapsUrl":"https://www.google.com/maps/place/Ac%C4%B1kt%C4%B1m+D%C3%B6ner/@40.8438464,31.15654,14z/data=!4m9!1m3!2m2!1zZMO2bmVyY2k!6e5!3m4!1s0x409d75465ca23d4d:0x6e9746cfe306e651!8m2!3d40.836559!4d31.1695538","openHours":" ","category":"Restoran","rating":"3,0"},{"name":"Rumeli Kebapçısı 1933","address":"Şerefiye, Çınlar Sk., 81000 Düzce Merkez/Düzce","website":"rumelikebapcisi.com","tel":"(0380) 523 33 34","mapsUrl":"https://www.google.com/maps/place/Rumeli+Kebap%C3%A7%C4%B1s%C4%B1+1933/@40.8438464,31.15654,14z/data=!4m9!1m3!2m2!1zZMO2bmVyY2k!6e5!3m4!1s0x409d755abf99ee25:0x4544eccc187c56a8!8m2!3d40.8391685!4d31.1611054","openHours":"Pazartesi,07:00 - 21:00; Salı,07:00 - 21:00; Çarşamba,07:00 - 21:00; Perşembe,07:00 - 21:00; Cuma,07:00 - 21:00; Cumartesi,07:00 - 21:00; Pazar,Kapalı.","category":"Restoran","rating":"4,3"},{"name":"Közde Köfte","address":"Cedidiye, 353. Sk. No:4, 81020 Düzce Merkez/Düzce","website":" ","tel":"(0380) 523 44 81","mapsUrl":"https://www.google.com/maps/place/K%C3%B6zde+K%C3%B6fte/@40.8438464,31.15654,14z/data=!4m9!1m3!2m2!1zZMO2bmVyY2k!6e5!3m4!1s0x409d755b27058cc5:0xb41f72af71f70b4a!8m2!3d40.838636!4d31.160425","openHours":"Pazartesi,10:00 - 21:00; Salı,10:00 - 21:00; Çarşamba,10:00 - 21:00; Perşembe,10:00 - 21:00; Cuma,10:00 - 21:00; Cumartesi,10:00 - 21:00; Pazar,10:00 - 21:00.","category":"Restoran","rating":"4,4"},{"name":"Sosta Katık Döner","address":"Kültür, Spor Sk. No:8, 81100 Merkez/Düzce","website":"business.site","tel":"(0380) 514 94 64","mapsUrl":"https://www.google.com/maps/place/Sosta+Kat%C4%B1k+D%C3%B6ner/@40.8438464,31.15654,14z/data=!4m9!1m3!2m2!1zZMO2bmVyY2k!6e5!3m4!1s0x409d753ceee430bb:0xea3aab87682fafc7!8m2!3d40.840122!4d31.158961","openHours":"Pazartesi,11:00 - 00:00; Salı,11:00 - 00:00; Çarşamba,11:00 - 00:00; Perşembe,11:00 - 00:00; Cuma,11:00 - 00:00; Cumartesi,11:00 - 00:00; Pazar,11:00 - 00:00.","category":"Restoran","rating":"5,0"},{"name":"Torku Döner Ziyafet Düzce","address":"Kültür, Spor Sk. No:9/A, 81100 Merkez/Düzce","website":"torkuziyafet.com.tr","tel":"(0380) 523 89 90","mapsUrl":"https://www.google.com/maps/place/Torku+D%C3%B6ner+Ziyafet+D%C3%BCzce/@40.8438464,31.15654,14z/data=!4m9!1m3!2m2!1zZMO2bmVyY2k!6e5!3m4!1s0x409d75e1aba5f7b7:0x821dc8cb86a9e5fd!8m2!3d40.8399743!4d31.1589181","openHours":"Pazartesi,09:30 - 23:00; Salı,09:30 - 23:00; Çarşamba,09:30 - 23:00; Perşembe,09:30 - 23:00; Cuma,09:30 - 23:00; Cumartesi,09:30 - 23:00; Pazar,09:30 - 23:00.","category":"Restoran","rating":"4,7"},{"name":"Sofram Kebap","address":"Kültür, Spor Sok. No:12, 81600 Düzce Merkez/Düzce","website":"soframkebap.com.tr","tel":"(0380) 512 02 02","mapsUrl":"https://www.google.com/maps/place/Sofram+Kebap/@40.8438464,31.15654,14z/data=!4m9!1m3!2m2!1zZMO2bmVyY2k!6e5!3m4!1s0x409d75536685eb35:0xd239710e90189ca9!8m2!3d40.8403605!4d31.1582969","openHours":"Pazartesi,08:00 - 23:00; Salı,08:00 - 23:00; Çarşamba,08:00 - 23:00; Perşembe,08:00 - 23:00; Cuma,08:00 - 23:00; Cumartesi,08:00 - 23:00; Pazar,08:00 - 23:00.","category":"Restoran","rating":"4,2"},{"name":"Tavuk Dünyası","address":"Merkez, Camikebir Mahallesi 659. Bulvarı, 81100 Düzce","website":"tavukdunyasi.com","tel":"444 8 850","mapsUrl":"https://www.google.com/maps/place/Tavuk+D%C3%BCnyas%C4%B1/@40.8438464,31.15654,14z/data=!4m9!1m3!2m2!1zZMO2bmVyY2k!6e5!3m4!1s0x409d75595cfc553d:0xcac0ee446394c596!8m2!3d40.839418!4d31.1541128","openHours":"Pazartesi,10:00 - 22:00; Salı,10:00 - 22:00; Çarşamba,10:00 - 22:00; Perşembe,10:00 - 22:00; Cuma,10:00 - 22:00; Cumartesi,10:00 - 22:00; Pazar,10:00 - 22:00.","category":"Tavuk restoranı","rating":"4,1"},{"name":"Bi Home Burger","address":"Camikebir, Mahmut Şevket Sk. No:2, 81020 Düzce Merkez/Düzce","website":"yemeksepeti.com","tel":"(0380) 524 31 81","mapsUrl":"https://www.google.com/maps/place/Bi+Home+Burger/@40.8438464,31.15654,14z/data=!4m9!1m3!2m2!1zZMO2bmVyY2k!6e5!3m4!1s0x409d752748f250c1:0x40cc8ed3b5699163!8m2!3d40.8397303!4d31.1540009","openHours":"Pazartesi,08:00 - 00:00; Salı,08:00 - 00:00; Çarşamba,08:00 - 00:00; Perşembe,08:00 - 00:00; Cuma,08:00 - 00:00; Cumartesi,08:00 - 00:00; Pazar,08:00 - 00:00.","category":"Restoran","rating":"4,3"},{"name":"AYESMİ DÜRÜM DÖNER","address":"Şehit Kemal Işıldak, Konuralp Cd., 81620 Düzce Merkez/Düzce","website":"yemeksepeti.com","tel":"0543 543 81 08","mapsUrl":"https://www.google.com/maps/place/AYESM%C4%B0+D%C3%9CR%C3%9CM+D%C3%96NER/@40.8438464,31.15654,14z/data=!4m9!1m3!2m2!1zZMO2bmVyY2k!6e5!3m4!1s0x409da11d1cc8f221:0x115782c0fedbf051!8m2!3d40.9010967!4d31.1694136","openHours":"Pazartesi,24 saat açık; Salı,24 saat açık; Çarşamba,24 saat açık; Perşembe,24 saat açık; Cuma,24 saat açık; Cumartesi,24 saat açık; Pazar,24 saat açık.","category":"Restoran","rating":"4,0"},{"name":"Aydın Döner","address":"Körpeşler, Servet Bucurgat Caddesi No:2, 81030 Düzce Merkez/Düzce","website":" ","tel":" ","mapsUrl":"https://www.google.com/maps/place/Ayd%C4%B1n+D%C3%B6ner/@40.8438464,31.15654,14z/data=!4m9!1m3!2m2!1zZMO2bmVyY2k!6e5!3m4!1s0x409da00385b1be63:0xa9813e0734cd18d3!8m2!3d40.8559211!4d31.156028","openHours":"Pazartesi,08:30 - 20:00; Salı,08:30 - 20:00; Çarşamba,08:30 - 20:00; Perşembe,08:30 - 20:00; Cuma,08:30 - 20:00; Cumartesi,08:30 - 20:00; Pazar,08:30 - 20:00.","category":"Restoran","rating":"3,0"},{"name":"Neffis Döner","address":"Kültür Mahallesi, 2. Cadde No: 41, 81600 Beyköy/Düzce Merkez/Düzce","website":" ","tel":"0507 623 04 81","mapsUrl":"https://www.google.com/maps/place/Neffis+D%C3%B6ner/@40.776999,31.1560802,14z/data=!4m9!1m3!2m2!1zZMO2bmVyY2k!6e5!3m4!1s0x409d759db1416515:0xb6ff7b09ee2a59d9!8m2!3d40.776999!4d31.1735897","openHours":"Pazartesi,08:00 - 20:00; Salı,08:00 - 20:00; Çarşamba,08:00 - 20:00; Perşembe,08:00 - 20:00; Cuma,08:00 - 20:00; Cumartesi,08:00 - 20:00; Pazar,08:00 - 20:00.","category":"Fast food lokantası","rating":"4,8"},{"name":"@ DÖNERCİ","address":"Yalı, Oto sok No:1/J, 81650 Akçakoca/Düzce","website":"etdonerci.com","tel":"(0380) 611 95 95","mapsUrl":"https://www.google.com/maps/place/'@+D%C3%96NERC%C4%B0'/@41.0888239,31.1061587,14z/data=!4m9!1m3!2m2!1zZMO2bmVyY2k!6e5!3m4!1s0x409db3aede1c3e9b:0xd722ba731b067f87!8m2!3d41.0888239!4d31.1236682","openHours":"Pazartesi,11:00 - 22:00; Salı,11:00 - 22:00; Çarşamba,11:00 - 22:00; Perşembe,11:00 - 22:00; Cuma,11:00 - 22:00; Cumartesi,11:00 - 22:00; Pazar,11:00 - 22:00.","category":"Restoran","rating":"4,5"},{"name":"Usta Dönerci","address":"Paşaköy Mah. D-100 Karayolu Cad. No:8 D:133 14 Burda AVM, 14100 Merkez","website":"ustadonerci.com","tel":"0850 297 8782","mapsUrl":"https://www.google.com/maps/place/Usta+D%C3%B6nerci/@40.7321324,31.5457225,14z/data=!4m9!1m3!2m2!1zZMO2bmVyY2k!6e5!3m4!1s0x409d3f88fd5637c3:0x7de9d01ed05b97dd!8m2!3d40.7321324!4d31.563232","openHours":"Pazartesi,10:00 - 22:00; Salı,10:00 - 22:00; Çarşamba,10:00 - 22:00; Perşembe,10:00 - 22:00; Cuma,10:00 - 22:00; Cumartesi,10:00 - 22:00; Pazar,10:00 - 22:00.","category":"Fast food lokantası","rating":"2,9"},{"name":"Üniversity Katık Düzce","address":"Üniversite cad Ablok no:24/an Unnamed Road,81620, 81620 Yörük/MERKEZ/Düzce","website":" ","tel":"(0380) 541 31 31","mapsUrl":"https://www.google.com/maps/place/%C3%9Cniversity+Kat%C4%B1k+D%C3%BCzce/@40.8438464,31.15654,14z/data=!4m9!1m3!2m2!1zZMO2bmVyY2k!6e5!3m4!1s0x409da0e5620f16c5:0x6214e3940d70c770!8m2!3d40.8955147!4d31.1683222","openHours":"Pazartesi,09:00 - 01:30; Salı,09:00 - 01:30; Çarşamba,09:00 - 01:30; Perşembe,09:00 - 01:30; Cuma,09:00 - 01:30; Cumartesi,09:00 - 01:30; Pazar,09:00 - 01:30.","category":"Restoran","rating":"3,7"},{"name":"Sarıyer Döner","address":"Merkez, Spor Sk. No:7, Kültür Mahallesi, 81600 Düzce Merkez/Düzce, 81100 Düzce","website":" ","tel":"(0380) 523 08 87","mapsUrl":"https://www.google.com/maps/place/Sar%C4%B1yer+D%C3%B6ner/@40.8438464,31.15654,14z/data=!4m9!1m3!2m2!1zZMO2bmVyY2k!6e5!3m4!1s0x409d755a593e915d:0xab35ec0224d12183!8m2!3d40.83997!4d31.159043","openHours":" ","category":"Yemek salonu","rating":"4,5"},{"name":"Öğretmen Dönercisi","address":"Merkez, 54800 Kocaali/Sakarya","website":" ","tel":" ","mapsUrl":"https://www.google.com/maps/place/%C3%96%C4%9Fretmen+D%C3%B6nercisi/@41.0548552,30.8355366,14z/data=!4m9!1m3!2m2!1zZMO2bmVyY2k!6e5!3m4!1s0x409dc7a9b6a0f3b5:0xbd96a949f572627b!8m2!3d41.0548552!4d30.8530461","openHours":" ","category":"Fast food lokantası","rating":"4,0"},{"name":"Kadir Bey Kebap & Döner","address":"Cedidiye, 81010 Düzce Merkez/Düzce","website":" ","tel":" ","mapsUrl":"https://www.google.com/maps/place/Kadir+Bey+Kebap+%26+D%C3%B6ner/@40.8438464,31.15654,14z/data=!4m9!1m3!2m2!1zZMO2bmVyY2k!6e5!3m4!1s0x409d7544d18d3e05:0xcd4d4dbe9267924c!8m2!3d40.8379335!4d31.1613357","openHours":" ","category":" ","rating":" "},{"name":"Usta Dönerci","address":"Müftü Mah. Erdemir Cad. No:160 D:61 Ereylin AVM, 67300 Ereğli/Zonguldak","website":"ustadonerci.com","tel":"0850 297 8782","mapsUrl":"https://www.google.com/maps/place/Usta+D%C3%B6nerci/@40.8424916,30.6136159,9z/data=!4m9!1m3!2m2!1zZMO2bmVyY2k!6e5!3m4!1s0x409c5b4829b06833:0x4fbe5138a821a245!8m2!3d41.2719575!4d31.4365621","openHours":"Pazartesi,10:00 - 22:00; Salı,10:00 - 22:00; Çarşamba,10:00 - 22:00; Perşembe,10:00 - 22:00; Cuma,10:00 - 22:00; Cumartesi,10:00 - 22:00; Pazar,10:00 - 22:00.","category":"Fast food lokantası","rating":" "},{"name":"Usta Dönerci","address":"Özdemir Park AVM, Bağlık Mah. Erdemir Cad. No:93 D:53, 67300 Ereğli/Zonguldak","website":"ustadonerci.com","tel":"0850 297 8782","mapsUrl":"https://www.google.com/maps/place/Usta+D%C3%B6nerci/@40.8424916,30.6136159,9z/data=!4m9!1m3!2m2!1zZMO2bmVyY2k!6e5!3m4!1s0x409c5b4afb671fef:0x44c9342d39169a98!8m2!3d41.2758144!4d31.4313619","openHours":"Pazartesi,10:00 - 22:00; Salı,10:00 - 22:00; Çarşamba,10:00 - 22:00; Perşembe,10:00 - 22:00; Cuma,10:00 - 22:00; Cumartesi,10:00 - 22:00; Pazar,10:00 - 22:00.","category":"Fast food lokantası","rating":"3,0"},{"name":"Usta Dönerci","address":"Erenler, Sakarya Cd No:324 D:Mağaza 74, 54200 Erenler/Sakarya","website":"ustadonerci.com","tel":"0850 297 8782","mapsUrl":"https://www.google.com/maps/place/Usta+D%C3%B6nerci/@40.8424916,30.6136159,9z/data=!3m1!5s0x14ccb372afe4b943:0xbf9713e1af92c9c0!4m9!1m3!2m2!1zZMO2bmVyY2k!6e5!3m4!1s0x14ccb372a213ff77:0xe2d5c45e05ebc4e2!8m2!3d40.7453101!4d30.4136334","openHours":"Pazartesi,10:00 - 22:00; Salı,10:00 - 22:00; Çarşamba,10:00 - 22:00; Perşembe,10:00 - 22:00; Cuma,10:00 - 22:00; Cumartesi,10:00 - 22:00; Pazar,10:00 - 22:00.","category":"Fast food lokantası","rating":"2,4"},{"name":"KARASU DÖNERCİ","address":"İncilli, Plaj Cd. no : 27, 54500 Karasu/Sakarya","website":"karasu-donerci.business.site","tel":"0553 053 05 84","mapsUrl":"https://www.google.com/maps/place/KARASU+D%C3%96NERC%C4%B0/@40.8424916,30.6136159,9z/data=!4m9!1m3!2m2!1zZMO2bmVyY2k!6e5!3m4!1s0x409ddbde5766a5f5:0xb3ead0e912d30d83!8m2!3d41.0978168!4d30.6926563","openHours":"Pazartesi,24 saat açık; Salı,24 saat açık; Çarşamba,24 saat açık; Perşembe,24 saat açık; Cuma,24 saat açık; Cumartesi,24 saat açık; Pazar,24 saat açık.","category":"Fast food lokantası","rating":"5,0"},{"name":"Usta Dönerci","address":"Arabacıalanı Mah. Eski Kasım Paşa Cad. No:10 K:2 D:113 Agora Adapazarı AVM, 54100 Adapazarı","website":"ustadonerci.com","tel":"0850 297 8782","mapsUrl":"https://www.google.com/maps/place/Usta+D%C3%B6nerci/@40.8424916,30.6136159,9z/data=!4m9!1m3!2m2!1zZMO2bmVyY2k!6e5!3m4!1s0x14ccb2d0f6e55551:0x61036e978e154149!8m2!3d40.7757593!4d30.3810541","openHours":"Pazartesi,10:00 - 22:00; Salı,10:00 - 22:00; Çarşamba,10:00 - 22:00; Perşembe,10:00 - 22:00; Cuma,10:00 - 22:00; Cumartesi,10:00 - 22:00; Pazar,10:00 - 22:00.","category":"Fast food lokantası","rating":"2,5"},{"name":"Usta Dönerci","address":"Müftü Mah. Erdemir Cad. No:160 D:61 Ereylin AVM, 67300 Ereğli/Zonguldak","website":"ustadonerci.com","tel":"0850 297 8782","mapsUrl":"https://www.google.com/maps/place/Usta+D%C3%B6nerci/@40.8424916,30.6136159,9z/data=!4m9!1m3!2m2!1zZMO2bmVyY2k!6e5!3m4!1s0x409c5b4829b06833:0x4fbe5138a821a245!8m2!3d41.2719575!4d31.4365621","openHours":"Pazartesi,10:00 - 22:00; Salı,10:00 - 22:00; Çarşamba,10:00 - 22:00; Perşembe,10:00 - 22:00; Cuma,10:00 - 22:00; Cumartesi,10:00 - 22:00; Pazar,10:00 - 22:00.","category":"Fast food lokantası","rating":" "},{"name":"Usta Dönerci","address":"Özdemir Park AVM, Bağlık Mah. Erdemir Cad. No:93 D:53, 67300 Ereğli/Zonguldak","website":"ustadonerci.com","tel":"0850 297 8782","mapsUrl":"https://www.google.com/maps/place/Usta+D%C3%B6nerci/@40.8424916,30.6136159,9z/data=!4m9!1m3!2m2!1zZMO2bmVyY2k!6e5!3m4!1s0x409c5b4afb671fef:0x44c9342d39169a98!8m2!3d41.2758144!4d31.4313619","openHours":"Pazartesi,10:00 - 22:00; Salı,10:00 - 22:00; Çarşamba,10:00 - 22:00; Perşembe,10:00 - 22:00; Cuma,10:00 - 22:00; Cumartesi,10:00 - 22:00; Pazar,10:00 - 22:00.","category":"Fast food lokantası","rating":"3,0"},{"name":"Usta Dönerci","address":"Erenler, Sakarya Cd No:324 D:Mağaza 74, 54200 Erenler/Sakarya","website":"ustadonerci.com","tel":"0850 297 8782","mapsUrl":"https://www.google.com/maps/place/Usta+D%C3%B6nerci/@40.8424916,30.6136159,9z/data=!3m1!5s0x14ccb372afe4b943:0xbf9713e1af92c9c0!4m9!1m3!2m2!1zZMO2bmVyY2k!6e5!3m4!1s0x14ccb372a213ff77:0xe2d5c45e05ebc4e2!8m2!3d40.7453101!4d30.4136334","openHours":"Pazartesi,10:00 - 22:00; Salı,10:00 - 22:00; Çarşamba,10:00 - 22:00; Perşembe,10:00 - 22:00; Cuma,10:00 - 22:00; Cumartesi,10:00 - 22:00; Pazar,10:00 - 22:00.","category":"Fast food lokantası","rating":"2,4"},{"name":"KARASU DÖNERCİ","address":"İncilli, Plaj Cd. no : 27, 54500 Karasu/Sakarya","website":"karasu-donerci.business.site","tel":"0553 053 05 84","mapsUrl":"https://www.google.com/maps/place/KARASU+D%C3%96NERC%C4%B0/@40.8424916,30.6136159,9z/data=!4m9!1m3!2m2!1zZMO2bmVyY2k!6e5!3m4!1s0x409ddbde5766a5f5:0xb3ead0e912d30d83!8m2!3d41.0978168!4d30.6926563","openHours":"Pazartesi,24 saat açık; Salı,24 saat açık; Çarşamba,24 saat açık; Perşembe,24 saat açık; Cuma,24 saat açık; Cumartesi,24 saat açık; Pazar,24 saat açık.","category":"Fast food lokantası","rating":"5,0"},{"name":"Usta Dönerci","address":"Arabacıalanı Mah. Eski Kasım Paşa Cad. No:10 K:2 D:113 Agora Adapazarı AVM, 54100 Adapazarı","website":"ustadonerci.com","tel":"0850 297 8782","mapsUrl":"https://www.google.com/maps/place/Usta+D%C3%B6nerci/@40.8424916,30.6136159,9z/data=!4m9!1m3!2m2!1zZMO2bmVyY2k!6e5!3m4!1s0x14ccb2d0f6e55551:0x61036e978e154149!8m2!3d40.7757593!4d30.3810541","openHours":"Pazartesi,10:00 - 22:00; Salı,10:00 - 22:00; Çarşamba,10:00 - 22:00; Perşembe,10:00 - 22:00; Cuma,10:00 - 22:00; Cumartesi,10:00 - 22:00; Pazar,10:00 - 22:00.","category":"Fast food lokantası","rating":"2,5"}]