[{"name":"66 Perde","address":"Cedidiye, Kızılay Meydanı, Bayram Saniye Sk. No: 8/B, 81100 Düzce","website":"66perde.business.site","tel":"0554 585 72 74","mapsUrl":"https://www.google.com/maps/place/66+Perde/@40.843849,31.15654,14z/data=!4m8!1m2!2m1!1sperdeci!3m4!1s0x409d0aad4097d5d5:0x24068f0bb640ad8f!8m2!3d40.838147!4d31.159954","openHours":"Çarşamba,09:00 - 19:00; Perşembe,09:00 - 19:00; Cuma,09:00 - 19:00; Cumartesi,09:00 - 19:00; Pazar,Kapalı; Pazartesi,09:00 - 19:00; Salı,09:00 - 19:00.","category":"Perde Mağazası","rating":"5,0"},{"name":"GÜL PERDE","address":"Kültür, Akçakoca Cd. No:15, 81600 Düzce Merkez/Düzce","website":" ","tel":"0554 867 35 10","mapsUrl":"https://www.google.com/maps/place/G%C3%9CL+PERDE/@40.8438464,31.15654,14z/data=!4m8!1m2!2m1!1sperdeci!3m4!1s0x409d755a607fe7b5:0x6f94627a71b9798e!8m2!3d40.8402074!4d31.1594344","openHours":"Çarşamba,09:30 - 21:00; Perşembe,09:30 - 21:00; Cuma,09:30 - 21:00; Cumartesi,09:30 - 21:00; Pazar,Kapalı; Pazartesi,09:30 - 21:00; Salı,09:30 - 21:00.","category":"Ev Eşyaları Mağazası","rating":" "},{"name":"Eda Perde","address":"Cedidiye Mah Mimar Sinan Cad, Necip Güney Sk. No:15, 81010 Merkez/Düzce","website":" ","tel":"(0380) 514 84 24","mapsUrl":"https://www.google.com/maps/place/Eda+Perde/@40.837066,31.1438039,14z/data=!4m8!1m2!2m1!1sperdeci!3m4!1s0x409d755361880a6d:0x220b1b8e9334ebdc!8m2!3d40.837066!4d31.1613134","openHours":"Çarşamba,09:00 - 19:00; Perşembe,09:00 - 19:00; Cuma,09:00 - 19:00; Cumartesi,09:00 - 19:00; Pazar,Kapalı; Pazartesi,09:00 - 19:00; Salı,09:00 - 19:00.","category":"Kumaş Mağazası","rating":"4,3"},{"name":"ELİF PERDE","address":"Şerefiye, a, Atatürk Blv. No:13, 81010 Düzce Merkez/Düzce","website":"tikla.com.tr","tel":"(0380) 524 61 44","mapsUrl":"https://www.google.com/maps/place/EL%C4%B0F+PERDE/@40.837066,31.1438039,14z/data=!4m8!1m2!2m1!1sperdeci!3m4!1s0x409d755ab32295eb:0x5cc1e74f86d67d75!8m2!3d40.839701!4d31.162782","openHours":"Çarşamba,08:00 - 20:30; Perşembe,08:00 - 20:30; Cuma,08:00 - 20:30; Cumartesi,08:00 - 20:30; Pazar,Kapalı; Pazartesi,08:00 - 20:30; Salı,08:00 - 20:30.","category":"Ev Eşyaları Mağazası","rating":"5,0"},{"name":"Velioğlu Perde","address":"İstanbul Caddesi Malatyalı Pasajı No:Z98/14, 81100 Merkez/Düzce","website":" ","tel":"(0380) 514 21 81","mapsUrl":"https://www.google.com/maps/place/Velio%C4%9Flu+Perde/@40.837066,31.1438039,14z/data=!4m8!1m2!2m1!1sperdeci!3m4!1s0x409d755a569a85f7:0x4baffc9796bc41aa!8m2!3d40.839609!4d31.158625","openHours":"Çarşamba,09:00 - 20:00; Perşembe,09:00 - 20:00; Cuma,09:00 - 20:00; Cumartesi,09:00 - 20:00; Pazar,Kapalı; Pazartesi,09:00 - 20:00; Salı,09:00 - 20:00.","category":"Perde Mağazası","rating":"5,0"},{"name":"Kocaoğlu Perde","address":"Camikebir, İstanbul Cd. No:107, 81020 Merkez/Düzce Merkez/Düzce","website":" ","tel":"(0380) 523 37 58","mapsUrl":"https://www.google.com/maps/place/Kocao%C4%9Flu+Perde/@40.8438464,31.15654,14z/data=!4m8!1m2!2m1!1sperdeci!3m4!1s0x409d9fe19246a8ff:0x4458fecf89a87569!8m2!3d40.8401839!4d31.1455966","openHours":"Çarşamba,09:00 - 18:30; Perşembe,09:00 - 18:30; Cuma,09:00 - 18:30; Cumartesi,09:00 - 18:30; Pazar,Kapalı; Pazartesi,09:00 - 18:30; Salı,09:00 - 18:30.","category":"Perde Mağazası","rating":"3,0"},{"name":"Çetinkaya Perde Düzce","address":"Burhaniye, Atatürk Blv. 44/A, 81100 Düzce Merkez/Düzce","website":" ","tel":"(0380) 514 28 58","mapsUrl":"https://www.google.com/maps/place/%C3%87etinkaya+Perde+D%C3%BCzce/@40.8438464,31.15654,14z/data=!4m8!1m2!2m1!1sperdeci!3m4!1s0x409d75504ba6f58d:0xec7b30de198aed7a!8m2!3d40.842225!4d31.163789","openHours":"Çarşamba,08:00 - 21:00; Perşembe,08:00 - 21:00; Cuma,08:00 - 21:00; Cumartesi,08:00 - 21:00; Pazar,10:30 - 20:00; Pazartesi,08:00 - 21:00; Salı,08:00 - 21:00.","category":"Perde Mağazası","rating":"4,8"},{"name":"Özçelik Perde","address":"Cedidiye, 5858 Sk. No:1/m, 81000 Merkez/Düzce","website":" ","tel":"0532 100 78 23","mapsUrl":"https://www.google.com/maps/place/%C3%96z%C3%A7elik+Perde/@40.8438464,31.15654,14z/data=!4m8!1m2!2m1!1sperdeci!3m4!1s0x409d755ad88f34a5:0xb76526be17643597!8m2!3d40.823834!4d31.175741","openHours":"Çarşamba,07:00 - 11:13; Perşembe,07:00 - 11:13; Cuma,07:00 - 11:13; Cumartesi,07:00 - 11:13; Pazar,07:00 - 11:13; Pazartesi,07:00 - 11:13; Salı,07:00 - 11:13.","category":"Perde Mağazası","rating":" "},{"name":"düzce perde","address":"Uzun Mustafa, Nezih Tütüncüoğlu Bulvari No:27, 81100 merkez/Düzce Merkez/Düzce","website":" ","tel":"(0380) 514 66 16","mapsUrl":"https://www.google.com/maps/place/d%C3%BCzce+perde/@40.842725,31.1226895,14z/data=!4m8!1m2!2m1!1sperdeci!3m4!1s0x409d9fe42611c2b5:0x289b0fbdd2e9e412!8m2!3d40.842725!4d31.140199","openHours":" ","category":"Mefruşatçı","rating":"4,0"},{"name":"Pırıltı Perde Evi","address":"Hamidiye, 1259. Sk. No: 5/a D:2, 81030 Düzce Merkez/Düzce","website":" ","tel":"0544 212 63 13","mapsUrl":"https://www.google.com/maps/place/P%C4%B1r%C4%B1lt%C4%B1+Perde+Evi/@40.8438464,31.15654,14z/data=!4m8!1m2!2m1!1sperdeci!3m4!1s0x409d0aaaec6765bb:0x2b8b63b8d33550ed!8m2!3d40.8510102!4d31.163322","openHours":"Çarşamba,09:00 - 19:00; Perşembe,09:00 - 19:00; Cuma,09:00 - 19:00; Cumartesi,09:00 - 19:00; Pazar,Kapalı; Pazartesi,09:00 - 19:00; Salı,09:00 - 19:00.","category":"Perde Mağazası","rating":"5,0"},{"name":"Gündoğdular Perde","address":"Cedidiye, Kızılay Meydanı No:7, 81020 Düzce Merkez/Düzce","website":" ","tel":"(0380) 512 22 22","mapsUrl":"https://www.google.com/maps/place/G%C3%BCndo%C4%9Fdular+Perde/@40.8438464,31.15654,14z/data=!4m8!1m2!2m1!1sperdeci!3m4!1s0x409d755b2c306db9:0xceaadddf82b38d14!8m2!3d40.838308!4d31.160678","openHours":"Çarşamba,09:00 - 20:30; Perşembe,09:00 - 20:30; Cuma,09:00 - 20:30; Cumartesi,09:00 - 20:30; Pazar,13:00 - 18:00; Pazartesi,09:00 - 20:30; Salı,09:00 - 20:30.","category":"Mobilya mağazası","rating":"4,1"},{"name":"Beyaz Perde Tasarım Evi Düzce Merkez","address":"Kültür, Çamlı Sk. No:2, 81600 Düzce Merkez/Düzce","website":" ","tel":"0539 791 67 25","mapsUrl":"https://www.google.com/maps/place/Beyaz+Perde+Tasar%C4%B1m+Evi+D%C3%BCzce+Merkez/@40.8438464,31.15654,14z/data=!4m8!1m2!2m1!1sperdeci!3m4!1s0x409d7558a5410299:0xeca5e6e025599f5e!8m2!3d40.840608!4d31.1491458","openHours":" ","category":"Ev Eşyaları Mağazası","rating":"5,0"},{"name":"Tamate Perde","address":"Azmimilli, 81020 Düzce Merkez/Düzce","website":" ","tel":" ","mapsUrl":"https://www.google.com/maps/place/Tamate+Perde/@40.8438464,31.15654,14z/data=!4m8!1m2!2m1!1sperdeci!3m4!1s0x409d754386ed68d1:0x527a4f3fcbb90044!8m2!3d40.8355819!4d31.1625463","openHours":" ","category":" ","rating":"5,0"},{"name":"Osmanlı Perde","address":"Cedidiye, Hacı Hamdi Sk. No:23, 81020 Düzce Merkez/Düzce","website":" ","tel":" ","mapsUrl":"https://www.google.com/maps/place/Osmanl%C4%B1+Perde/@40.8438464,31.15654,14z/data=!4m8!1m2!2m1!1sperdeci!3m4!1s0x409d755b3ac32c75:0xc68a7c235fe304fb!8m2!3d40.838224!4d31.1600231","openHours":" ","category":" ","rating":" "},{"name":"MURAT PERDE HALI","address":"Burhaniye, 30, Atatürk Blv., 81010 Düzce Merkez","website":"muratperde.com","tel":"(0380) 523 00 58","mapsUrl":"https://www.google.com/maps/place/MURAT+PERDE+HALI/@40.8438464,31.15654,14z/data=!4m8!1m2!2m1!1sperdeci!3m4!1s0x409d7550161ed259:0xd163717fa7e8bd01!8m2!3d40.8412763!4d31.1635493","openHours":"Çarşamba,08:30 - 20:00; Perşembe,08:30 - 20:00; Cuma,08:30 - 20:00; Cumartesi,08:30 - 20:00; Pazar,08:30 - 20:00; Pazartesi,08:30 - 20:00; Salı,08:30 - 20:00.","category":"Perde Mağazası","rating":" "},{"name":"LÛLÛ PERDE","address":"Burhaniye, Atatürk Blv. No:62, 81010 Düzce Merkez/Düzce","website":" ","tel":"0544 521 81 81","mapsUrl":"https://www.google.com/maps/place/L%C3%9BL%C3%9B+PERDE/@40.8438464,31.15654,14z/data=!4m8!1m2!2m1!1sperdeci!3m4!1s0x409d7551a25f1f35:0x5253005174d68add!8m2!3d40.843313!4d31.1642208","openHours":"Çarşamba,09:00 - 20:00; Perşembe,09:00 - 20:00; Cuma,09:00 - 20:00; Cumartesi,09:00 - 20:00; Pazar,09:00 - 20:00; Pazartesi,09:00 - 20:00; Salı,09:00 - 20:00.","category":"Perde Mağazası","rating":"4,9"},{"name":"Gelin Çeyiz Mefruşat","address":"Cedidiye, Sinan Cad. No:41, 81020 Düzce Merkez/Düzce","website":" ","tel":"(0380) 523 82 86","mapsUrl":"https://www.google.com/maps/place/Gelin+%C3%87eyiz+Mefru%C5%9Fat/@40.8438464,31.15654,14z/data=!4m8!1m2!2m1!1sperdeci!3m4!1s0x409d756cc4d9a6bf:0x412dff2c2008b70c!8m2!3d40.8364287!4d31.1624561","openHours":"Çarşamba,09:00 - 20:00; Perşembe,09:00 - 20:00; Cuma,09:00 - 20:00; Cumartesi,09:00 - 20:00; Pazar,Kapalı; Pazartesi,09:00 - 20:00; Salı,09:00 - 20:00.","category":"Mobilya mağazası","rating":" "},{"name":"Taç","address":"Cedidiye, Kızılay Meydanı/bayan Saniye Sok. No:4, 81020 Düzce Merkez/Düzce","website":"tac.com.tr","tel":"(0380) 514 97 01","mapsUrl":"https://www.google.com/maps/place/Ta%C3%A7/@40.8438464,31.15654,14z/data=!4m8!1m2!2m1!1sperdeci!3m4!1s0x409d755376960833:0x766f17c4dabc9d2d!8m2!3d40.83782!4d31.1598488","openHours":" ","category":"Karyola Mağazası","rating":"5,0"},{"name":"Sevdim Perde","address":"Azmimilli, Cevdet Komit Cd. No:22, 81100 Merkez/Düzce","website":"tum-saatleri.com","tel":"0530 432 08 81","mapsUrl":"https://www.google.com/maps/place/Sevdim+Perde/@40.8438464,31.15654,14z/data=!4m8!1m2!2m1!1sperdeci!3m4!1s0x409d75c986e09009:0x3fbdc977a403045c!8m2!3d40.833418!4d31.158709","openHours":"Çarşamba,08:30 - 21:30; Perşembe,08:30 - 21:30; Cuma,08:30 - 21:30; Cumartesi,08:30 - 21:30; Pazar,08:30 - 21:30; Pazartesi,08:30 - 21:30; Salı,08:30 - 21:30.","category":"Perde Mağazası","rating":"5,0"},{"name":"Özçelik Perde Laminat Parke","address":"Cedidiye, Bayraktar Sk. No:3, 81020 Düzce Merkez/Düzce","website":" ","tel":"(0380) 523 28 63","mapsUrl":"https://www.google.com/maps/place/%C3%96z%C3%A7elik+Perde+Laminat+Parke/@40.8438464,31.15654,14z/data=!4m8!1m2!2m1!1sperdeci!3m4!1s0x409d755ad88c3049:0xe84082f2095916dc!8m2!3d40.8387595!4d31.1605716","openHours":"Çarşamba,07:00 - 21:00; Perşembe,07:00 - 21:00; Cuma,07:00 - 21:00; Cumartesi,07:00 - 21:00; Pazar,07:00 - 21:00; Pazartesi,07:00 - 21:00; Salı,07:00 - 21:00.","category":"Alışveriş merkezi","rating":" "},{"name":"Michelin - Aktaş Oto Euromaster","address":"Fatih Mah, D100 Üzeri D:No:504, 81030 Merkez/Düzce","website":"michelin.com.tr","tel":"(0380) 523 19 15","mapsUrl":"https://www.google.com/maps/place/Michelin+-+Akta%C5%9F+Oto+Euromaster/@40.8485989,31.1182301,14z/data=!4m8!1m2!2m1!1zbGFzdGlrw6dp!3m4!1s0x14cac5b5438e75b3:0x382ed7f938f9dd27!8m2!3d40.8485989!4d31.1357396","openHours":"Çarşamba,08:30 - 18:00; Perşembe,08:30 - 18:00; Cuma,08:30 - 18:00; Cumartesi,08:30 - 17:00; Pazar,10:00 - 16:00; Pazartesi,08:30 - 18:00; Salı,08:30 - 18:00.","category":"Oto Lastik Dükkanı","rating":"5,0"},{"name":"Reis OTO LASTIK ---LASTIKCI HUSEYINN","address":"Cumhuriyet, 81600 Düzce Merkez/Düzce","website":" ","tel":"0544 903 00 81","mapsUrl":"https://www.google.com/maps/place/Reis+OTO+LASTIK+---LASTIKCI+HUSEYINN/@40.8438464,31.15654,14z/data=!4m8!1m2!2m1!1zbGFzdGlrw6dp!3m4!1s0x409d75d7725d6eb9:0x8b3de66bd63c5603!8m2!3d40.825979!4d31.1946606","openHours":"Çarşamba,24 saat açık; Perşembe,24 saat açık; Cuma,24 saat açık; Cumartesi,24 saat açık; Pazar,24 saat açık; Pazartesi,24 saat açık; Salı,24 saat açık.","category":"Oto Lastik Dükkanı","rating":" "},{"name":"Çağla Lastik","address":"Merkez, akçakoca yolu üzeri beyciler sapağı 10181010 merkez/düzce, 00081 Düzce","website":"cagla-lastik.business.site","tel":"(0380) 526 07 58","mapsUrl":"https://www.google.com/maps/place/%C3%87a%C4%9Fla+Lastik/@40.8438464,31.15654,14z/data=!4m8!1m2!2m1!1zbGFzdGlrw6dp!3m4!1s0x409da00d2a4f4281:0xbd022947ef87c928!8m2!3d40.857216!4d31.1671113","openHours":"Çarşamba,07:30 - 19:30; Perşembe,07:30 - 19:30; Cuma,07:30 - 19:30; Cumartesi,07:30 - 19:30; Pazar,10:00 - 19:30; Pazartesi,07:30 - 19:30; Salı,07:30 - 19:30.","category":"Oto Lastik Dükkanı","rating":"4,7"},{"name":"Lastik Vs.","address":"Uzun Mustafa, D-100 Karayolu No:402, 81010 Düzce Merkez/Düzce","website":"lastikvs.com","tel":"(0380) 514 19 80","mapsUrl":"https://www.google.com/maps/place/Lastik+Vs./@40.8438464,31.15654,14z/data=!4m8!1m2!2m1!1zbGFzdGlrw6dp!3m4!1s0x409d9ffc012fc4b1:0xf2152c42f8675e6a!8m2!3d40.84783!4d31.1515491","openHours":"Çarşamba,08:00 - 19:30; Perşembe,08:00 - 19:30; Cuma,08:00 - 19:30; Cumartesi,08:00 - 19:30; Pazar,Kapalı; Pazartesi,08:00 - 19:30; Salı,08:00 - 19:30.","category":"Oto Lastik Dükkanı","rating":"3,0"},{"name":"Kervan Oto Lastik","address":"Cumhuriyet, D100 Yanyolu, 81600 Düzce Merkez/Düzce","website":" ","tel":"0544 438 80 80","mapsUrl":"https://www.google.com/maps/place/Kervan+Oto+Lastik/@40.8438464,31.15654,14z/data=!4m8!1m2!2m1!1zbGFzdGlrw6dp!3m4!1s0x409d757b56930807:0xaff2d8670f8fc06e!8m2!3d40.8338787!4d31.1787489","openHours":"Çarşamba,24 saat açık; Perşembe,24 saat açık; Cuma,24 saat açık; Cumartesi,24 saat açık; Pazar,24 saat açık; Pazartesi,24 saat açık; Salı,24 saat açık.","category":"Oto Lastik Dükkanı","rating":"4,7"},{"name":"Likos Oto Lastik Balans 7/24 yol yardim","address":"Fevzi Çakmak, A, Eski Bolu Cd. No:249, 81020 Düzce Merkez/Düzce","website":"business.site","tel":"0545 303 29 91","mapsUrl":"https://www.google.com/maps/place/Likos+Oto+Lastik+Balans+7%2F24+yol+yardim/@40.8253209,31.1767324,14z/data=!4m8!1m2!2m1!1zbGFzdGlrw6dp!3m4!1s0x409d74df43b7c251:0x238a3e09662e1c05!8m2!3d40.8253209!4d31.1942419","openHours":"Çarşamba,24 saat açık; Perşembe,24 saat açık; Cuma,24 saat açık; Cumartesi,24 saat açık; Pazar,24 saat açık; Pazartesi,24 saat açık; Salı,24 saat açık.","category":"Oto Lastik Dükkanı","rating":"3,4"},{"name":"Lastik Park","address":"Uzun Mustafa, D100 Yanyolu, 81010 Düzce Merkez/Düzce","website":" ","tel":" ","mapsUrl":"https://www.google.com/maps/place/Lastik+Park/@40.848153,31.1308985,14z/data=!4m8!1m2!2m1!1zbGFzdGlrw6dp!3m4!1s0x409d9ffbecd2871f:0xea4b5e768a017d96!8m2!3d40.848153!4d31.148408","openHours":"Çarşamba,08:30 - 19:30; Perşembe,08:30 - 19:30; Cuma,08:30 - 19:30; Cumartesi,08:30 - 19:30; Pazar,Kapalı; Pazartesi,08:30 - 19:30; Salı,08:30 - 19:30.","category":"Oto Lastik Dükkanı","rating":"3,8"},{"name":"İlhan Oto Lastik","address":"Fatih, D100, 81030 Düzce Merkez/Düzce","website":" ","tel":" ","mapsUrl":"https://www.google.com/maps/place/%C4%B0lhan+Oto+Lastik/@40.8438464,31.15654,14z/data=!4m8!1m2!2m1!1zbGFzdGlrw6dp!3m4!1s0x409d9ffa8204ad0d:0x5a3b645877e342d!8m2!3d40.848498!4d31.142305","openHours":"Çarşamba,08:00 - 19:30; Perşembe,08:00 - 19:30; Cuma,08:00 - 19:30; Cumartesi,08:00 - 19:30; Pazar,Kapalı; Pazartesi,08:00 - 19:30; Salı,08:00 - 19:30.","category":"Oto Lastik Dükkanı","rating":"3,9"},{"name":"Lassa - Tevekkel Oto Sanayi","address":"Eski Sanayi Çarşısı 791. Sok. D:2, Düzce Merkez, Düzce","website":"lassa.com.tr","tel":"(0380) 524 02 00","mapsUrl":"https://www.google.com/maps/place/Lassa+-+Tevekkel+Oto+Sanayi/@40.8438464,31.15654,14z/data=!4m8!1m2!2m1!1zbGFzdGlrw6dp!3m4!1s0x409d9ffdd134fe57:0xef2722be24fd1742!8m2!3d40.8475684!4d31.1534241","openHours":"Çarşamba,08:00 - 19:00; Perşembe,08:00 - 19:00; Cuma,08:00 - 19:00; Cumartesi,08:00 - 19:00; Pazar,Kapalı; Pazartesi,08:00 - 19:00; Salı,08:00 - 19:00.","category":"Oto Lastik Dükkanı","rating":"5,0"},{"name":"Emre Jant Lastik","address":"Kültür, Kuyumcuzade Blv., 81600 Düzce Merkez/Düzce","website":" ","tel":"0555 581 61 62","mapsUrl":"https://www.google.com/maps/place/Emre+Jant+Lastik/@40.8438464,31.15654,14z/data=!4m8!1m2!2m1!1zbGFzdGlrw6dp!3m4!1s0x409d9ffdb3071ff3:0x98d15a6c84610070!8m2!3d40.846649!4d31.152029","openHours":"Çarşamba,08:30 - 19:00; Perşembe,08:30 - 19:00; Cuma,08:30 - 19:00; Cumartesi,08:30 - 19:00; Pazar,10:00 - 17:00; Pazartesi,08:30 - 19:00; Salı,08:30 - 19:00.","category":"Oto Lastik Dükkanı","rating":"4,0"},{"name":"Lastik Park Pak-Kurt Otomotiv 2","address":"Koçyazı, 81100 Düzce Merkez/Düzce","website":" ","tel":"0532 291 98 72","mapsUrl":"https://www.google.com/maps/place/Lastik+Park+Pak-Kurt+Otomotiv+2/@40.8438464,31.15654,14z/data=!4m8!1m2!2m1!1zbGFzdGlrw6dp!3m4!1s0x409d75cc53d05259:0xf18a3bd0824e42d9!8m2!3d40.8405719!4d31.1808455","openHours":"Çarşamba,08:30 - 18:30; Perşembe,08:30 - 18:30; Cuma,08:30 - 18:30; Cumartesi,08:30 - 18:30; Pazar,10:30 - 17:00; Pazartesi,08:30 - 18:30; Salı,08:30 - 18:30.","category":"Oto Lastik Dükkanı","rating":"4,0"},{"name":"Gulbahar Oto Lastik","address":"Aziziye, D 100 karayolu kenarı No 541, 81100 Düzce Merkez/Düzce","website":"business.site","tel":"0539 505 23 06","mapsUrl":"https://www.google.com/maps/place/Gulbahar+Oto+Lastik/@40.8438464,31.15654,14z/data=!4m8!1m2!2m1!1zbGFzdGlrw6dp!3m4!1s0x409d9fecfd9cf187:0x23f44eb0a4847fd8!8m2!3d40.8480178!4d31.1337086","openHours":"Çarşamba,09:00 - 19:00; Perşembe,09:00 - 19:00; Cuma,09:00 - 19:00; Cumartesi,09:00 - 19:00; Pazar,Kapalı; Pazartesi,09:00 - 19:00; Salı,09:00 - 19:00.","category":"Oto Lastik Dükkanı","rating":"4,9"},{"name":"YILDIRIMLAR OTO LASTİK","address":"yıldırımlar lastik kaplama, aziziye mah olimpiyat mevkii no 513, 81100 Düzce","website":"yildirimlargroup.com","tel":"(0380) 524 82 81","mapsUrl":"https://www.google.com/maps/place/YILDIRIMLAR+OTO+LAST%C4%B0K/@40.8438464,31.15654,14z/data=!4m8!1m2!2m1!1zbGFzdGlrw6dp!3m4!1s0x14caa6faf8b934a3:0xec3c8a184f4d0cd3!8m2!3d40.8478855!4d31.1376832","openHours":"Çarşamba,08:00 - 18:00; Perşembe,08:00 - 18:00; Cuma,08:00 - 18:00; Cumartesi,08:00 - 18:00; Pazar,Kapalı; Pazartesi,08:00 - 18:00; Salı,08:00 - 18:00.","category":"Oto Lastik Dükkanı","rating":"4,6"},{"name":"KUŞÇUOĞLU LASTİK-PETLAS BÖLGE BAYİİ","address":"Kültür, Kuyumcuzade Blv. No:17, 81600 Düzce Merkez/Düzce","website":"business.site","tel":"(0380) 523 40 57","mapsUrl":"https://www.google.com/maps/place/KU%C5%9E%C3%87UO%C4%9ELU+LAST%C4%B0K-PETLAS+B%C3%96LGE+BAY%C4%B0%C4%B0/@40.8459322,31.1345378,14z/data=!4m8!1m2!2m1!1zbGFzdGlrw6dp!3m4!1s0x409d9ffd128628ab:0x715ca6c9fa89c1a4!8m2!3d40.8459322!4d31.1520473","openHours":"Çarşamba,08:00 - 19:30; Perşembe,08:00 - 19:30; Cuma,08:00 - 19:30; Cumartesi,08:00 - 19:30; Pazar,12:00 - 18:00; Pazartesi,08:00 - 19:30; Salı,08:00 - 19:30.","category":"Oto Lastik Mağazası","rating":"5,0"},{"name":"By Lastik & Jant","address":"Aziziye Mah. D-100 Karayolu Kenarı No:589 Merkez Mahallesi, 81100 Düzce","website":"bylastik.com.tr","tel":"(0380) 523 75 76","mapsUrl":"https://www.google.com/maps/place/By+Lastik+%26+Jant/@40.847997,31.1118561,14z/data=!4m8!1m2!2m1!1zbGFzdGlrw6dp!3m4!1s0x409d7545303a50c3:0x392479d8d7ddd897!8m2!3d40.847997!4d31.1293656","openHours":" ","category":"Oto Lastik Dükkanı","rating":"4,6"},{"name":"Mutlu Kardeşler","address":"Akınlar, 2590 Sk., 81100 Düzce Merkez/Düzce","website":" ","tel":"0541 513 16 45","mapsUrl":"https://www.google.com/maps/place/Mutlu+Karde%C5%9Fler/@40.8438464,31.15654,14z/data=!4m8!1m2!2m1!1zbGFzdGlrw6dp!3m4!1s0x409d9f8d2bff6b63:0x10eac8f21575b19f!8m2!3d40.8525488!4d31.1225077","openHours":" ","category":"Oto Lastik Dükkanı","rating":"5,0"},{"name":"Pak-Kurt Otomotiv","address":"Aziziye, Kültür Mah. No: 90/D Opet Karşısı, 1030. Sk., 81030 Merkez/Düzce Merkez/Düzce","website":" ","tel":"(0380) 514 18 41","mapsUrl":"https://www.google.com/maps/place/Pak-Kurt+Otomotiv/@40.8438464,31.15654,14z/data=!4m8!1m2!2m1!1zbGFzdGlrw6dp!3m4!1s0x409d75535f2305c7:0xf09144f01e92f806!8m2!3d40.845636!4d31.152446","openHours":"Çarşamba,08:00 - 19:00; Perşembe,08:00 - 19:00; Cuma,08:00 - 19:00; Cumartesi,08:00 - 19:00; Pazar,Kapalı; Pazartesi,08:00 - 19:00; Salı,08:00 - 19:00.","category":"Oto Lastik Dükkanı","rating":"3,8"},{"name":"Lassa-tekevvel","address":"Kültür, 81600 Düzce Merkez/Düzce","website":"lassa.com.tr","tel":" ","mapsUrl":"https://www.google.com/maps/place/Lassa-tekevvel/@40.8438464,31.15654,14z/data=!4m8!1m2!2m1!1zbGFzdGlrw6dp!3m4!1s0x409d9ffdd486e42b:0x46c255322e72679a!8m2!3d40.847607!4d31.1531962","openHours":" ","category":"Oto Tamirhanesi","rating":"4,7"},{"name":"Continental","address":"Sancaklar, Plantfarma Bitkisel İlaç Sanayi A.Ş. No:343, 81100 Düzce Merkez/Düzce","website":"continental-lastikleri.com.tr","tel":" ","mapsUrl":"https://www.google.com/maps/place/Continental/@40.8714122,31.1476527,14z/data=!4m8!1m2!2m1!1zbGFzdGlrw6dp!3m4!1s0x409da06c3a5b7ffb:0xedef6a6ce431f75a!8m2!3d40.8714122!4d31.1651622","openHours":"Çarşamba,08:00 - 19:00; Perşembe,08:00 - 19:00; Cuma,08:00 - 19:00; Cumartesi,08:00 - 19:00; Pazar,12:00 - 16:00; Pazartesi,08:00 - 19:00; Salı,08:00 - 19:00.","category":"Oto Lastik Dükkanı","rating":"5,0"},{"name":"Yaşar Usta Oto Lastik","address":"Kültür, Kuyumcuzade Blv., 81600 Düzce Merkez/Düzce","website":" ","tel":" ","mapsUrl":"https://www.google.com/maps/place/Ya%C5%9Far+Usta+Oto+Lastik/@40.8472984,31.1346702,14z/data=!4m8!1m2!2m1!1zbGFzdGlrw6dp!3m4!1s0x409d9ffc317aa4a5:0x8ee16c5cbe191e39!8m2!3d40.8472984!4d31.1521797","openHours":"Çarşamba,08:00 - 19:30; Perşembe,08:00 - 19:30; Cuma,08:00 - 19:30; Cumartesi,08:00 - 19:30; Pazar,Kapalı; Pazartesi,08:00 - 19:30; Salı,08:00 - 19:30.","category":"Oto Lastik Dükkanı","rating":"5,0"},{"name":"www.duzceperde.net","address":"Aziziye, Nezih Tütüncüoğlu Bulvari27/b, 81010 Düzce Merkez/Düzce","website":"duzceperde.net","tel":"(0380) 514 66 16","mapsUrl":"https://www.google.com/maps/place/www.duzceperde.net/@40.8441117,31.1234915,14z/data=!4m9!1m3!2m2!1sperdeci!6e6!3m4!1s0x409d9fe67e503dc7:0x39111bd49f4d7ce0!8m2!3d40.8441117!4d31.141001","openHours":" ","category":" ","rating":" "},{"name":"Moda perde ve perde temizlik hizmetleri","address":"Yeni, Kırklar Sk. No:11, 81600 Düzce Merkez/Düzce","website":" ","tel":"0543 460 69 23","mapsUrl":"https://www.google.com/maps/place/Moda+perde+ve+perde+temizlik+hizmetleri/@40.8493316,31.1298295,14z/data=!4m9!1m3!2m2!1sperdeci!6e6!3m4!1s0x409d9f33d33c3fb7:0x34445af098de44e6!8m2!3d40.8493316!4d31.147339","openHours":"Çarşamba,24 saat açık; Perşembe,24 saat açık; Cuma,24 saat açık; Cumartesi,24 saat açık; Pazar,Kapalı; Pazartesi,09:00 - 19:00; Salı,24 saat açık.","category":"Perde Mağazası","rating":" "},{"name":"Baydanlar Mefruşat","address":"Çay, Mimar Sinan Cad. No:5, 81020 Düzce Merkez/Düzce","website":" ","tel":"(0380) 514 26 07","mapsUrl":"https://www.google.com/maps/place/Baydanlar+Mefru%C5%9Fat/@40.8438464,31.15654,14z/data=!4m9!1m3!2m2!1sperdeci!6e6!3m4!1s0x409d75539c35f311:0xbe9758f4f2524729!8m2!3d40.8369046!4d31.1566179","openHours":" ","category":"Mobilya mağazası","rating":"2,0"},{"name":"Taçmin Perde","address":"Aziziye, Şht. Ramazan Gel Cd. No:2, 81010, 81010 Düzce Merkez/Düzce","website":" ","tel":" ","mapsUrl":"https://www.google.com/maps/place/Ta%C3%A7min+Perde/@40.8438464,31.15654,14z/data=!4m9!1m3!2m2!1sperdeci!6e6!3m4!1s0x409d9f4eaa4cfa17:0x7d963d1e365fb4bb!8m2!3d40.8436848!4d31.1405024","openHours":" ","category":"Ev Eşyaları Mağazası","rating":"5,0"},{"name":"Taçmin Perde","address":"Aziziye, 903. Sk. No:7, 81010, 81010 Düzce Merkez/Düzce","website":" ","tel":" ","mapsUrl":"https://www.google.com/maps/place/Ta%C3%A7min+Perde/@40.8438464,31.15654,14z/data=!4m9!1m3!2m2!1sperdeci!6e6!3m4!1s0x409d9fe3c1563001:0xa3cbbe722d76e297!8m2!3d40.8464324!4d31.1404838","openHours":" ","category":"Ev Eşyaları Mağazası","rating":" "},{"name":"Taçmin Tekstil (Bayram Bilim)","address":"Cedidiye, Bolu Cd. No:36, 81020 Düzce Merkez/Düzce","website":" ","tel":" ","mapsUrl":"https://www.google.com/maps/place/Ta%C3%A7min+Tekstil+(Bayram+Bilim)/@40.8438464,31.15654,14z/data=!4m9!1m3!2m2!1sperdeci!6e6!3m4!1s0x409d7545b28ab5e1:0x82b646ce05d2f73b!8m2!3d40.837437!4d31.165272","openHours":" ","category":" ","rating":" "},{"name":"Güven Tekstil","address":"Cedidiye, Şehit Muhtar Sok. No:10, 81020 Düzce Merkez/Düzce","website":" ","tel":"(0380) 524 16 36","mapsUrl":"https://www.google.com/maps/place/G%C3%BCven+Tekstil/@40.8438464,31.15654,14z/data=!4m9!1m3!2m2!1sperdeci!6e6!3m4!1s0x409d7544d1626719:0x55c808d46a4bf688!8m2!3d40.8377314!4d31.1631593","openHours":"Çarşamba,09:00 - 20:00; Perşembe,09:00 - 20:00; Cuma,09:00 - 20:00; Cumartesi,09:00 - 20:00; Pazar,Kapalı; Pazartesi,09:00 - 20:00; Salı,09:00 - 20:00.","category":"Giyim mağazası","rating":" "},{"name":"Evin Perde","address":"Camikebir, 657. Sk. No:13, 81020 Düzce Merkez/Düzce","website":"evinperde.com","tel":"0537 369 25 15","mapsUrl":"https://www.google.com/maps/place/Evin+Perde/@40.8438464,31.15654,14z/data=!4m9!1m3!2m2!1sperdeci!6e6!3m4!1s0x409d755b9f677a83:0x21cc7a1f83a012ca!8m2!3d40.8385128!4d31.1572408","openHours":"Çarşamba,08:30 - 19:30; Perşembe,08:30 - 19:30; Cuma,08:30 - 19:30; Cumartesi,08:30 - 19:30; Pazar,Kapalı; Pazartesi,08:30 - 19:30; Salı,08:30 - 19:30.","category":" ","rating":" "},{"name":"DÜZCE KORNİŞ","address":"Kültür, İstanbul Cd. No:112, 81600 Düzce Merkez/Düzce","website":"hemengelse.com","tel":"0541 722 07 24","mapsUrl":"https://www.google.com/maps/place/D%C3%9CZCE+KORN%C4%B0%C5%9E/@40.8438464,31.15654,14z/data=!4m9!1m3!2m2!1sperdeci!6e6!3m4!1s0x409d755ed127e667:0x26c2bd55d42dd5a4!8m2!3d40.83999!4d31.157391","openHours":"Çarşamba,24 saat açık; Perşembe,24 saat açık; Cuma,24 saat açık; Cumartesi,24 saat açık; Pazar,24 saat açık; Pazartesi,24 saat açık; Salı,24 saat açık.","category":"Panjur ve Perde Mağazası","rating":" "},{"name":"ZİRVE HALI PERDE","address":" ","website":"zirve-hal-perde.business.site","tel":"(0380) 523 99 57","mapsUrl":"https://www.google.com/maps/place/Z%C4%B0RVE+HALI+PERDE/@40.8438464,31.15654,14z/data=!4m9!1m3!2m2!1sperdeci!6e6!3m4!1s0x409d754eec87d561:0x9ce2089b0912f491!8m2!3d40.810616!4d31.1899515","openHours":" ","category":"Ev Eşyaları Mağazası","rating":" "},{"name":"Yerli Tekstil Brode","address":"Yahyalar, 81100 Düzce Merkez/Düzce","website":" ","tel":" ","mapsUrl":"https://www.google.com/maps/place/Yerli+Tekstil+Brode/@40.8438464,31.15654,14z/data=!4m9!1m3!2m2!1sperdeci!6e6!3m4!1s0x409d0acdd0d06f99:0x1d107311ba238e79!8m2!3d40.8438826!4d31.1964756","openHours":"Çarşamba,08:00 - 18:00; Perşembe,08:00 - 18:00; Cuma,08:00 - 18:00; Cumartesi,08:00 - 18:00; Pazar,Kapalı; Pazartesi,08:00 - 18:00; Salı,08:00 - 18:00.","category":"Üretici","rating":" "},{"name":"Şengüloğlu Ev Konsept","address":"Şerefiye, Atatürk Blv. No:35, 81010 Düzce Merkez/Düzce","website":"senguloglu.com.tr","tel":"(0380) 523 45 32","mapsUrl":"https://www.google.com/maps/place/%C5%9Eeng%C3%BClo%C4%9Flu+Ev+Konsept/@40.8438464,31.15654,14z/data=!4m9!1m3!2m2!1sperdeci!6e6!3m4!1s0x409d75503fc351ad:0x1962c84b4c7fe4a3!8m2!3d40.8414146!4d31.1632724","openHours":"Çarşamba,08:00 - 22:00; Perşembe,08:00 - 22:00; Cuma,08:00 - 22:00; Cumartesi,08:00 - 22:00; Pazar,08:00 - 22:00; Pazartesi,08:00 - 22:00; Salı,08:00 - 22:00.","category":"Mobilya mağazası","rating":"4,7"},{"name":"Emin Mobilya","address":"Kültür, Büyük Cami Sok. No:7, 81600 Düzce Merkez/Düzce","website":"firmasec.com","tel":"(0380) 512 28 19","mapsUrl":"https://www.google.com/maps/place/Emin+Mobilya/@40.8438464,31.15654,14z/data=!4m9!1m3!2m2!1sperdeci!6e6!3m4!1s0x409d755708fbbd3f:0x22354a0a208e5435!8m2!3d40.843849!4d31.15654","openHours":"Çarşamba,08:00 - 19:30; Perşembe,08:00 - 19:30; Cuma,08:00 - 19:30; Cumartesi,08:20 - 19:30; Pazar,12:00 - 17:30; Pazartesi,08:00 - 19:30; Salı,08:00 - 19:30.","category":"Mobilya mağazası","rating":"4,0"},{"name":"Baydanlar","address":"Cedidiye, Hacı Hamdi Sk. No:16, 81020 Düzce Merkez/Düzce","website":" ","tel":" ","mapsUrl":"https://www.google.com/maps/place/Baydanlar/@40.8438464,31.15654,14z/data=!4m9!1m3!2m2!1sperdeci!6e6!3m4!1s0x409d755b3b4faefd:0x6f1f6fecd17c69f2!8m2!3d40.838319!4d31.1599102","openHours":"Çarşamba,08:30 - 21:00; Perşembe,08:30 - 21:00; Cuma,08:30 - 21:00; Cumartesi,08:30 - 21:00; Pazar,08:30 - 21:00; Pazartesi,08:30 - 21:00; Salı,08:30 - 21:00.","category":"Giyim mağazası","rating":"3,0"},{"name":"PERDECİ FİKRET KORNİŞÇİ FİKRET","address":"Gölyüzü Mah, Şht. Kani Cd. No: 50, 14100 Merkez/Bolu","website":"perdecifikret.com","tel":"0536 824 90 19","mapsUrl":"https://www.google.com/maps/place/PERDEC%C4%B0+F%C4%B0KRET+KORN%C4%B0%C5%9E%C3%87%C4%B0+F%C4%B0KRET/@40.7354602,31.5952913,14z/data=!4m9!1m3!2m2!1sperdeci!6e6!3m4!1s0x409d3ffbf6c0b409:0xbe24ba559f57eb32!8m2!3d40.7354602!4d31.6128008","openHours":"Çarşamba,09:00 - 18:00; Perşembe,09:00 - 18:00; Cuma,09:00 - 18:00; Cumartesi,09:00 - 18:00; Pazar,Kapalı; Pazartesi,09:00 - 18:00; Salı,09:00 - 18:00.","category":"Perde Mağazası","rating":" "},{"name":"Güllüoğlu Mefruşat Perdeci Merkez Magaza","address":"Merkez, Ali Alp Cd. no 66/B, 67850 Alaplı/Zonguldak","website":" ","tel":"0539 835 02 29","mapsUrl":"https://www.google.com/maps/place/G%C3%BCll%C3%BCo%C4%9Flu+Mefru%C5%9Fat+Perdeci+Merkez+Magaza/@41.179384,31.3710385,14z/data=!4m9!1m3!2m2!1sperdeci!6e6!3m4!1s0x409c510e1a0e4641:0xb1966594daf29f02!8m2!3d41.179384!4d31.388548","openHours":" ","category":"Perde Mağazası","rating":" "},{"name":"Mobilya Düzce","address":"Şerefiye, Cumhuriyet Sk. No:45, 81010 Düzce Merkez/Düzce","website":" ","tel":"0544 253 34 91","mapsUrl":"https://www.google.com/maps/place/Mobilya+D%C3%BCzce/@40.8438464,31.15654,14z/data=!4m9!1m3!2m2!1sperdeci!6e6!3m4!1s0x409d755054da6e1f:0xa53efa56195d9cfd!8m2!3d40.8426843!4d31.1627047","openHours":"Çarşamba,24 saat açık; Perşembe,24 saat açık; Cuma,24 saat açık; Cumartesi,24 saat açık; Pazar,24 saat açık; Pazartesi,24 saat açık; Salı,24 saat açık.","category":"Mutfak Mobilyası Mağazası","rating":" "},{"name":"DOĞTAŞ exclusive - Düzce","address":"Cedidiye, Bolu Cd. No:64, 81020 Düzce Merkez/Düzce","website":"dogtas.com.tr","tel":" ","mapsUrl":"https://www.google.com/maps/place/DO%C4%9ETA%C5%9E+exclusive+-+D%C3%BCzce/@40.8438464,31.15654,14z/data=!4m9!1m3!2m2!1sperdeci!6e6!3m4!1s0x409d7546621e628f:0x6c48f78d51495b78!8m2!3d40.836435!4d31.168341","openHours":"Çarşamba,09:00 - 19:30; Perşembe,09:00 - 19:30; Cuma,09:00 - 19:30; Cumartesi,09:00 - 19:30; Pazar,10:30 - 19:30; Pazartesi,09:00 - 19:30; Salı,09:00 - 19:30.","category":"Mobilya mağazası","rating":"4,1"},{"name":"GC HOME COLLECTION A.Ş","address":" ","website":" ","tel":"0552 809 81 61","mapsUrl":"https://www.google.com/maps/place/GC+HOME+COLLECTION+A.%C5%9E/@40.8438464,31.15654,14z/data=!4m9!1m3!2m2!1sperdeci!6e6!3m4!1s0x409d753d55b45757:0x8a9e256bd594eb70!8m2!3d40.8531225!4d31.1525985","openHours":"Çarşamba,08:30 - 21:00; Perşembe,08:30 - 21:00; Cuma,08:30 - 21:00; Cumartesi,08:30 - 21:00; Pazar,Kapalı; Pazartesi,08:30 - 21:00; Salı,08:30 - 21:00.","category":"Perde Mağazası","rating":" "},{"name":"Güllüoğlu Mefruşat Perdeci","address":"Müftü, 67300 Ereğli/Zonguldak","website":" ","tel":"0539 835 02 29","mapsUrl":"https://www.google.com/maps/place/G%C3%BCll%C3%BCo%C4%9Flu+Mefru%C5%9Fat+Perdeci/@41.2715826,31.41992,14z/data=!4m9!1m3!2m2!1sperdeci!6e6!3m4!1s0x409c5b37e0d83d63:0x9919ee5ef5584f0e!8m2!3d41.2715826!4d31.4374295","openHours":" ","category":"Perde Mağazası","rating":" "}]